2025-05-24 17:15:51,197 - Ground Station started - TLS: Disabled - Automated: Enabled - Test: Enabled
2025-05-24 17:15:51,276 - Drone MQTT started - TLS: Disabled - Test: Disabled
2025-05-24 17:16:00,623 - DRONE-SEND: Message ID ATTITUDE type attitude sent at 1748099760.623747
2025-05-24 17:16:00,624 - DRONE-SEND: Message ID GLOBAL_POSITION_INT type position sent at 1748099760.623984
2025-05-24 17:16:00,629 - GS-RECV: Message ID ATTITUDE type attitude received at 1748099760.629450
2025-05-24 17:16:00,679 - GS-RECV: Message ID GLOBAL_POSITION_INT type position received at 1748099760.679401
2025-05-24 17:16:01,372 - DRONE-SEND: Message ID ATTITUDE type attitude sent at 1748099761.372650
2025-05-24 17:16:01,372 - DRONE-SEND: Message ID GLOBAL_POSITION_INT type position sent at 1748099761.372863
2025-05-24 17:16:01,378 - GS-RECV: Message ID ATTITUDE type attitude received at 1748099761.378491
2025-05-24 17:16:01,378 - GS-RECV: Message ID GLOBAL_POSITION_INT type position received at 1748099761.378614
2025-05-24 17:16:01,874 - DRONE-SEND: Message ID ATTITUDE type attitude sent at 1748099761.874138
2025-05-24 17:16:01,874 - DRONE-SEND: Message ID GLOBAL_POSITION_INT type position sent at 1748099761.874374
2025-05-24 17:16:01,879 - GS-RECV: Message ID ATTITUDE type attitude received at 1748099761.879628
2025-05-24 17:16:01,894 - GS-RECV: Message ID GLOBAL_POSITION_INT type position received at 1748099761.894922
2025-05-24 17:16:02,375 - DRONE-SEND: Message ID ATTITUDE type attitude sent at 1748099762.375569
2025-05-24 17:16:02,375 - DRONE-SEND: Message ID GLOBAL_POSITION_INT type position sent at 1748099762.375778
2025-05-24 17:16:02,391 - GS-RECV: Message ID ATTITUDE type attitude received at 1748099762.391207
2025-05-24 17:16:02,391 - GS-RECV: Message ID GLOBAL_POSITION_INT type position received at 1748099762.391320
2025-05-24 17:16:03,122 - DRONE-SEND: Message ID ATTITUDE type attitude sent at 1748099763.121976
2025-05-24 17:16:03,122 - DRONE-SEND: Message ID GLOBAL_POSITION_INT type position sent at 1748099763.122146
2025-05-24 17:16:03,133 - GS-RECV: Message ID ATTITUDE type attitude received at 1748099763.133064
2025-05-24 17:16:03,143 - GS-RECV: Message ID GLOBAL_POSITION_INT type position received at 1748099763.143264
2025-05-24 17:16:03,624 - DRONE-SEND: Message ID ATTITUDE type attitude sent at 1748099763.624374
2025-05-24 17:16:03,624 - DRONE-SEND: Message ID GLOBAL_POSITION_INT type position sent at 1748099763.624555
2025-05-24 17:16:03,629 - GS-RECV: Message ID ATTITUDE type attitude received at 1748099763.629812
2025-05-24 17:16:03,640 - GS-RECV: Message ID GLOBAL_POSITION_INT type position received at 1748099763.640075
2025-05-24 17:16:04,125 - DRONE-SEND: Message ID ATTITUDE type attitude sent at 1748099764.125841
2025-05-24 17:16:04,126 - DRONE-SEND: Message ID GLOBAL_POSITION_INT type position sent at 1748099764.126077
2025-05-24 17:16:04,131 - GS-RECV: Message ID ATTITUDE type attitude received at 1748099764.131417
2025-05-24 17:16:04,131 - GS-RECV: Message ID GLOBAL_POSITION_INT type position received at 1748099764.131539
2025-05-24 17:16:04,872 - DRONE-SEND: Message ID ATTITUDE type attitude sent at 1748099764.872217
2025-05-24 17:16:04,872 - DRONE-SEND: Message ID GLOBAL_POSITION_INT type position sent at 1748099764.872428
2025-05-24 17:16:04,877 - GS-RECV: Message ID ATTITUDE type attitude received at 1748099764.877673
2025-05-24 17:16:04,892 - GS-RECV: Message ID GLOBAL_POSITION_INT type position received at 1748099764.892877
2025-05-24 17:16:05,373 - DRONE-SEND: Message ID ATTITUDE type attitude sent at 1748099765.373631
2025-05-24 17:16:05,373 - DRONE-SEND: Message ID GLOBAL_POSITION_INT type position sent at 1748099765.373800
2025-05-24 17:16:05,379 - GS-RECV: Message ID ATTITUDE type attitude received at 1748099765.379360
2025-05-24 17:16:05,379 - GS-RECV: Message ID GLOBAL_POSITION_INT type position received at 1748099765.379454
2025-05-24 17:16:05,875 - DRONE-SEND: Message ID ATTITUDE type attitude sent at 1748099765.875162
2025-05-24 17:16:05,875 - DRONE-SEND: Message ID GLOBAL_POSITION_INT type position sent at 1748099765.875350
2025-05-24 17:16:05,880 - GS-RECV: Message ID ATTITUDE type attitude received at 1748099765.880688
2025-05-24 17:16:05,890 - GS-RECV: Message ID GLOBAL_POSITION_INT type position received at 1748099765.890858
2025-05-24 17:16:06,376 - DRONE-SEND: Message ID ATTITUDE type attitude sent at 1748099766.376749
2025-05-24 17:16:06,376 - DRONE-SEND: Message ID GLOBAL_POSITION_INT type position sent at 1748099766.376948
2025-05-24 17:16:06,387 - GS-RECV: Message ID ATTITUDE type attitude received at 1748099766.387210
2025-05-24 17:16:06,402 - GS-RECV: Message ID GLOBAL_POSITION_INT type position received at 1748099766.402553
2025-05-24 17:16:07,123 - DRONE-SEND: Message ID ATTITUDE type attitude sent at 1748099767.123839
2025-05-24 17:16:07,124 - DRONE-SEND: Message ID GLOBAL_POSITION_INT type position sent at 1748099767.124007
2025-05-24 17:16:07,145 - GS-RECV: Message ID ATTITUDE type attitude received at 1748099767.145258
2025-05-24 17:16:07,155 - GS-RECV: Message ID GLOBAL_POSITION_INT type position received at 1748099767.155545
2025-05-24 17:16:07,625 - DRONE-SEND: Message ID ATTITUDE type attitude sent at 1748099767.625425
2025-05-24 17:16:07,625 - DRONE-SEND: Message ID GLOBAL_POSITION_INT type position sent at 1748099767.625625
2025-05-24 17:16:07,631 - GS-RECV: Message ID ATTITUDE type attitude received at 1748099767.631499
2025-05-24 17:16:07,641 - GS-RECV: Message ID GLOBAL_POSITION_INT type position received at 1748099767.641690
2025-05-24 17:16:08,127 - DRONE-SEND: Message ID ATTITUDE type attitude sent at 1748099768.126971
2025-05-24 17:16:08,127 - DRONE-SEND: Message ID GLOBAL_POSITION_INT type position sent at 1748099768.127226
2025-05-24 17:16:08,132 - GS-RECV: Message ID ATTITUDE type attitude received at 1748099768.132943
2025-05-24 17:16:08,138 - GS-RECV: Message ID GLOBAL_POSITION_INT type position received at 1748099768.138381
2025-05-24 17:16:08,873 - DRONE-SEND: Message ID ATTITUDE type attitude sent at 1748099768.873421
2025-05-24 17:16:08,873 - DRONE-SEND: Message ID GLOBAL_POSITION_INT type position sent at 1748099768.873695
2025-05-24 17:16:08,895 - GS-RECV: Message ID ATTITUDE type attitude received at 1748099768.895014
2025-05-24 17:16:08,895 - GS-RECV: Message ID GLOBAL_POSITION_INT type position received at 1748099768.895128
2025-05-24 17:16:09,374 - DRONE-SEND: Message ID ATTITUDE type attitude sent at 1748099769.374793
2025-05-24 17:16:09,375 - DRONE-SEND: Message ID GLOBAL_POSITION_INT type position sent at 1748099769.375028
2025-05-24 17:16:09,380 - GS-RECV: Message ID ATTITUDE type attitude received at 1748099769.380857
2025-05-24 17:16:09,380 - GS-RECV: Message ID GLOBAL_POSITION_INT type position received at 1748099769.380954
2025-05-24 17:16:10,122 - DRONE-SEND: Message ID ATTITUDE type attitude sent at 1748099770.122080
2025-05-24 17:16:10,122 - DRONE-SEND: Message ID GLOBAL_POSITION_INT type position sent at 1748099770.122279
2025-05-24 17:16:10,143 - GS-RECV: Message ID ATTITUDE type attitude received at 1748099770.143523
2025-05-24 17:16:10,153 - GS-RECV: Message ID GLOBAL_POSITION_INT type position received at 1748099770.153752
2025-05-24 17:16:10,624 - DRONE-SEND: Message ID ATTITUDE type attitude sent at 1748099770.624398
2025-05-24 17:16:10,624 - DRONE-SEND: Message ID GLOBAL_POSITION_INT type position sent at 1748099770.624584
2025-05-24 17:16:10,629 - GS-RECV: Message ID ATTITUDE type attitude received at 1748099770.629878
2025-05-24 17:16:10,630 - GS-RECV: Message ID GLOBAL_POSITION_INT type position received at 1748099770.630014
2025-05-24 17:16:11,126 - DRONE-SEND: Message ID ATTITUDE type attitude sent at 1748099771.126757
2025-05-24 17:16:11,126 - DRONE-SEND: Message ID GLOBAL_POSITION_INT type position sent at 1748099771.126986
2025-05-24 17:16:11,132 - GS-RECV: Message ID ATTITUDE type attitude received at 1748099771.132818
2025-05-24 17:16:11,132 - GS-RECV: Message ID GLOBAL_POSITION_INT type position received at 1748099771.132915
2025-05-24 17:16:11,874 - DRONE-SEND: Message ID ATTITUDE type attitude sent at 1748099771.874059
2025-05-24 17:16:11,874 - DRONE-SEND: Message ID GLOBAL_POSITION_INT type position sent at 1748099771.874334
2025-05-24 17:16:11,880 - GS-RECV: Message ID ATTITUDE type attitude received at 1748099771.880453
2025-05-24 17:16:11,890 - GS-RECV: Message ID GLOBAL_POSITION_INT type position received at 1748099771.890675
2025-05-24 17:16:12,375 - DRONE-SEND: Message ID ATTITUDE type attitude sent at 1748099772.375394
2025-05-24 17:16:12,375 - DRONE-SEND: Message ID GLOBAL_POSITION_INT type position sent at 1748099772.375635
2025-05-24 17:16:12,381 - GS-RECV: Message ID ATTITUDE type attitude received at 1748099772.381186
2025-05-24 17:16:12,391 - GS-RECV: Message ID GLOBAL_POSITION_INT type position received at 1748099772.391512
2025-05-24 17:16:13,123 - DRONE-SEND: Message ID ATTITUDE type attitude sent at 1748099773.123431
2025-05-24 17:16:13,123 - DRONE-SEND: Message ID GLOBAL_POSITION_INT type position sent at 1748099773.123625
2025-05-24 17:16:13,129 - GS-RECV: Message ID ATTITUDE type attitude received at 1748099773.129277
2025-05-24 17:16:13,149 - GS-RECV: Message ID GLOBAL_POSITION_INT type position received at 1748099773.149554
2025-05-24 17:16:13,624 - DRONE-SEND: Message ID ATTITUDE type attitude sent at 1748099773.624922
2025-05-24 17:16:13,625 - DRONE-SEND: Message ID GLOBAL_POSITION_INT type position sent at 1748099773.625189
2025-05-24 17:16:13,630 - GS-RECV: Message ID ATTITUDE type attitude received at 1748099773.630444
2025-05-24 17:16:13,640 - GS-RECV: Message ID GLOBAL_POSITION_INT type position received at 1748099773.640631
2025-05-24 17:16:14,373 - DRONE-SEND: Message ID ATTITUDE type attitude sent at 1748099774.373826
2025-05-24 17:16:14,374 - DRONE-SEND: Message ID GLOBAL_POSITION_INT type position sent at 1748099774.374025
2025-05-24 17:16:14,379 - GS-RECV: Message ID ATTITUDE type attitude received at 1748099774.379360
2025-05-24 17:16:14,379 - GS-RECV: Message ID GLOBAL_POSITION_INT type position received at 1748099774.379478
2025-05-24 17:16:14,875 - DRONE-SEND: Message ID ATTITUDE type attitude sent at 1748099774.875335
2025-05-24 17:16:14,875 - DRONE-SEND: Message ID GLOBAL_POSITION_INT type position sent at 1748099774.875538
2025-05-24 17:16:14,886 - GS-RECV: Message ID ATTITUDE type attitude received at 1748099774.886389
2025-05-24 17:16:14,911 - GS-RECV: Message ID GLOBAL_POSITION_INT type position received at 1748099774.911814
2025-05-24 17:16:15,376 - DRONE-SEND: Message ID ATTITUDE type attitude sent at 1748099775.376716
2025-05-24 17:16:15,376 - DRONE-SEND: Message ID GLOBAL_POSITION_INT type position sent at 1748099775.376915
2025-05-24 17:16:15,382 - GS-RECV: Message ID ATTITUDE type attitude received at 1748099775.382158
2025-05-24 17:16:15,382 - GS-RECV: Message ID GLOBAL_POSITION_INT type position received at 1748099775.382249
2025-05-24 17:16:16,123 - DRONE-SEND: Message ID ATTITUDE type attitude sent at 1748099776.123343
2025-05-24 17:16:16,123 - DRONE-SEND: Message ID GLOBAL_POSITION_INT type position sent at 1748099776.123584
2025-05-24 17:16:16,134 - GS-RECV: Message ID ATTITUDE type attitude received at 1748099776.134038
2025-05-24 17:16:16,134 - GS-RECV: Message ID GLOBAL_POSITION_INT type position received at 1748099776.134148
2025-05-24 17:16:16,624 - DRONE-SEND: Message ID ATTITUDE type attitude sent at 1748099776.624771
2025-05-24 17:16:16,624 - DRONE-SEND: Message ID GLOBAL_POSITION_INT type position sent at 1748099776.624974
2025-05-24 17:16:16,630 - GS-RECV: Message ID ATTITUDE type attitude received at 1748099776.630445
2025-05-24 17:16:16,630 - GS-RECV: Message ID GLOBAL_POSITION_INT type position received at 1748099776.630560
2025-05-24 17:16:17,126 - DRONE-SEND: Message ID ATTITUDE type attitude sent at 1748099777.126275
2025-05-24 17:16:17,126 - DRONE-SEND: Message ID GLOBAL_POSITION_INT type position sent at 1748099777.126538
2025-05-24 17:16:17,131 - GS-RECV: Message ID ATTITUDE type attitude received at 1748099777.131860
2025-05-24 17:16:17,137 - GS-RECV: Message ID GLOBAL_POSITION_INT type position received at 1748099777.137099
2025-05-24 17:16:17,872 - DRONE-SEND: Message ID ATTITUDE type attitude sent at 1748099777.872741
2025-05-24 17:16:17,873 - DRONE-SEND: Message ID GLOBAL_POSITION_INT type position sent at 1748099777.872990
2025-05-24 17:16:17,878 - GS-RECV: Message ID ATTITUDE type attitude received at 1748099777.878956
2025-05-24 17:16:17,879 - GS-RECV: Message ID GLOBAL_POSITION_INT type position received at 1748099777.879052
2025-05-24 17:16:18,376 - DRONE-SEND: Message ID ATTITUDE type attitude sent at 1748099778.376547
2025-05-24 17:16:18,376 - DRONE-SEND: Message ID GLOBAL_POSITION_INT type position sent at 1748099778.376764
2025-05-24 17:16:18,382 - GS-RECV: Message ID ATTITUDE type attitude received at 1748099778.382047
2025-05-24 17:16:18,382 - GS-RECV: Message ID GLOBAL_POSITION_INT type position received at 1748099778.382172
2025-05-24 17:16:18,877 - DRONE-SEND: Message ID ATTITUDE type attitude sent at 1748099778.877308
2025-05-24 17:16:18,877 - DRONE-SEND: Message ID GLOBAL_POSITION_INT type position sent at 1748099778.877560
2025-05-24 17:16:18,882 - GS-RECV: Message ID ATTITUDE type attitude received at 1748099778.882849
2025-05-24 17:16:18,882 - GS-RECV: Message ID GLOBAL_POSITION_INT type position received at 1748099778.882963
2025-05-24 17:16:19,626 - DRONE-SEND: Message ID ATTITUDE type attitude sent at 1748099779.626141
2025-05-24 17:16:19,626 - DRONE-SEND: Message ID GLOBAL_POSITION_INT type position sent at 1748099779.626378
2025-05-24 17:16:19,642 - GS-RECV: Message ID ATTITUDE type attitude received at 1748099779.642540
2025-05-24 17:16:19,652 - GS-RECV: Message ID GLOBAL_POSITION_INT type position received at 1748099779.652755
2025-05-24 17:16:20,375 - DRONE-SEND: Message ID ATTITUDE type attitude sent at 1748099780.375031
2025-05-24 17:16:20,375 - DRONE-SEND: Message ID GLOBAL_POSITION_INT type position sent at 1748099780.375221
2025-05-24 17:16:20,380 - GS-RECV: Message ID ATTITUDE type attitude received at 1748099780.380846
2025-05-24 17:16:20,386 - GS-RECV: Message ID GLOBAL_POSITION_INT type position received at 1748099780.386075
2025-05-24 17:16:20,876 - DRONE-SEND: Message ID ATTITUDE type attitude sent at 1748099780.876489
2025-05-24 17:16:20,876 - DRONE-SEND: Message ID GLOBAL_POSITION_INT type position sent at 1748099780.876664
2025-05-24 17:16:20,882 - GS-RECV: Message ID ATTITUDE type attitude received at 1748099780.881988
2025-05-24 17:16:20,887 - GS-RECV: Message ID GLOBAL_POSITION_INT type position received at 1748099780.887232
2025-05-24 17:16:21,623 - DRONE-SEND: Message ID ATTITUDE type attitude sent at 1748099781.622978
2025-05-24 17:16:21,623 - DRONE-SEND: Message ID GLOBAL_POSITION_INT type position sent at 1748099781.623156
2025-05-24 17:16:21,628 - GS-RECV: Message ID ATTITUDE type attitude received at 1748099781.628643
2025-05-24 17:16:21,628 - GS-RECV: Message ID GLOBAL_POSITION_INT type position received at 1748099781.628751
2025-05-24 17:16:22,124 - DRONE-SEND: Message ID ATTITUDE type attitude sent at 1748099782.124524
2025-05-24 17:16:22,124 - DRONE-SEND: Message ID GLOBAL_POSITION_INT type position sent at 1748099782.124746
2025-05-24 17:16:22,130 - GS-RECV: Message ID ATTITUDE type attitude received at 1748099782.130731
2025-05-24 17:16:22,146 - GS-RECV: Message ID GLOBAL_POSITION_INT type position received at 1748099782.146030
2025-05-24 17:16:22,625 - DRONE-SEND: Message ID ATTITUDE type attitude sent at 1748099782.625934
2025-05-24 17:16:22,626 - DRONE-SEND: Message ID GLOBAL_POSITION_INT type position sent at 1748099782.626194
2025-05-24 17:16:22,631 - GS-RECV: Message ID ATTITUDE type attitude received at 1748099782.631472
2025-05-24 17:16:22,631 - GS-RECV: Message ID GLOBAL_POSITION_INT type position received at 1748099782.631580
2025-05-24 17:16:23,127 - DRONE-SEND: Message ID ATTITUDE type attitude sent at 1748099783.127365
2025-05-24 17:16:23,127 - DRONE-SEND: Message ID GLOBAL_POSITION_INT type position sent at 1748099783.127533
2025-05-24 17:16:23,132 - GS-RECV: Message ID ATTITUDE type attitude received at 1748099783.132787
2025-05-24 17:16:23,137 - GS-RECV: Message ID GLOBAL_POSITION_INT type position received at 1748099783.137959
2025-05-24 17:16:23,873 - DRONE-SEND: Message ID ATTITUDE type attitude sent at 1748099783.872995
2025-05-24 17:16:23,873 - DRONE-SEND: Message ID GLOBAL_POSITION_INT type position sent at 1748099783.873182
2025-05-24 17:16:23,879 - GS-RECV: Message ID ATTITUDE type attitude received at 1748099783.879174
2025-05-24 17:16:23,894 - GS-RECV: Message ID GLOBAL_POSITION_INT type position received at 1748099783.894437
2025-05-24 17:16:24,374 - DRONE-SEND: Message ID ATTITUDE type attitude sent at 1748099784.374510
2025-05-24 17:16:24,374 - DRONE-SEND: Message ID GLOBAL_POSITION_INT type position sent at 1748099784.374681
2025-05-24 17:16:24,380 - GS-RECV: Message ID ATTITUDE type attitude received at 1748099784.380442
2025-05-24 17:16:24,390 - GS-RECV: Message ID GLOBAL_POSITION_INT type position received at 1748099784.390651
2025-05-24 17:16:24,877 - DRONE-SEND: Message ID ATTITUDE type attitude sent at 1748099784.877569
2025-05-24 17:16:24,877 - DRONE-SEND: Message ID GLOBAL_POSITION_INT type position sent at 1748099784.877784
2025-05-24 17:16:24,883 - GS-RECV: Message ID ATTITUDE type attitude received at 1748099784.883160
2025-05-24 17:16:24,883 - GS-RECV: Message ID GLOBAL_POSITION_INT type position received at 1748099784.883273
2025-05-24 17:16:25,627 - DRONE-SEND: Message ID ATTITUDE type attitude sent at 1748099785.627309
2025-05-24 17:16:25,627 - DRONE-SEND: Message ID GLOBAL_POSITION_INT type position sent at 1748099785.627496
2025-05-24 17:16:25,633 - GS-RECV: Message ID ATTITUDE type attitude received at 1748099785.633344
2025-05-24 17:16:25,643 - GS-RECV: Message ID GLOBAL_POSITION_INT type position received at 1748099785.643572
2025-05-24 17:16:26,377 - DRONE-SEND: Message ID ATTITUDE type attitude sent at 1748099786.377095
2025-05-24 17:16:26,377 - DRONE-SEND: Message ID GLOBAL_POSITION_INT type position sent at 1748099786.377322
2025-05-24 17:16:26,382 - GS-RECV: Message ID ATTITUDE type attitude received at 1748099786.382830
2025-05-24 17:16:26,398 - GS-RECV: Message ID GLOBAL_POSITION_INT type position received at 1748099786.398124
2025-05-24 17:16:27,123 - DRONE-SEND: Message ID ATTITUDE type attitude sent at 1748099787.123559
2025-05-24 17:16:27,123 - DRONE-SEND: Message ID GLOBAL_POSITION_INT type position sent at 1748099787.123782
2025-05-24 17:16:27,134 - GS-RECV: Message ID ATTITUDE type attitude received at 1748099787.134122
2025-05-24 17:16:27,144 - GS-RECV: Message ID GLOBAL_POSITION_INT type position received at 1748099787.144361
2025-05-24 17:16:27,624 - DRONE-SEND: Message ID ATTITUDE type attitude sent at 1748099787.624171
2025-05-24 17:16:27,624 - DRONE-SEND: Message ID GLOBAL_POSITION_INT type position sent at 1748099787.624416
2025-05-24 17:16:27,634 - GS-RECV: Message ID ATTITUDE type attitude received at 1748099787.634683
2025-05-24 17:16:27,655 - GS-RECV: Message ID GLOBAL_POSITION_INT type position received at 1748099787.655058
2025-05-24 17:16:28,126 - DRONE-SEND: Message ID ATTITUDE type attitude sent at 1748099788.126557
2025-05-24 17:16:28,126 - DRONE-SEND: Message ID GLOBAL_POSITION_INT type position sent at 1748099788.126789
2025-05-24 17:16:28,133 - GS-RECV: Message ID ATTITUDE type attitude received at 1748099788.132998
2025-05-24 17:16:28,148 - GS-RECV: Message ID GLOBAL_POSITION_INT type position received at 1748099788.148240
2025-05-24 17:16:28,873 - DRONE-SEND: Message ID ATTITUDE type attitude sent at 1748099788.873057
2025-05-24 17:16:28,873 - DRONE-SEND: Message ID GLOBAL_POSITION_INT type position sent at 1748099788.873323
2025-05-24 17:16:28,879 - GS-RECV: Message ID ATTITUDE type attitude received at 1748099788.879276
2025-05-24 17:16:28,894 - GS-RECV: Message ID GLOBAL_POSITION_INT type position received at 1748099788.894563
2025-05-24 17:16:29,374 - DRONE-SEND: Message ID ATTITUDE type attitude sent at 1748099789.374359
2025-05-24 17:16:29,374 - DRONE-SEND: Message ID GLOBAL_POSITION_INT type position sent at 1748099789.374568
2025-05-24 17:16:29,390 - GS-RECV: Message ID ATTITUDE type attitude received at 1748099789.390453
2025-05-24 17:16:29,395 - GS-RECV: Message ID GLOBAL_POSITION_INT type position received at 1748099789.395633
2025-05-24 17:16:29,875 - DRONE-SEND: Message ID ATTITUDE type attitude sent at 1748099789.875866
2025-05-24 17:16:29,876 - DRONE-SEND: Message ID GLOBAL_POSITION_INT type position sent at 1748099789.876101
2025-05-24 17:16:29,881 - GS-RECV: Message ID ATTITUDE type attitude received at 1748099789.881562
2025-05-24 17:16:29,886 - GS-RECV: Message ID GLOBAL_POSITION_INT type position received at 1748099789.886702
2025-05-24 17:16:30,377 - DRONE-SEND: Message ID ATTITUDE type attitude sent at 1748099790.377273
2025-05-24 17:16:30,377 - DRONE-SEND: Message ID GLOBAL_POSITION_INT type position sent at 1748099790.377475
2025-05-24 17:16:30,383 - GS-RECV: Message ID ATTITUDE type attitude received at 1748099790.383280
2025-05-24 17:16:30,383 - GS-RECV: Message ID GLOBAL_POSITION_INT type position received at 1748099790.383379
2025-05-24 17:16:31,127 - DRONE-SEND: Message ID ATTITUDE type attitude sent at 1748099791.127163
2025-05-24 17:16:31,127 - DRONE-SEND: Message ID GLOBAL_POSITION_INT type position sent at 1748099791.127364
2025-05-24 17:16:31,133 - GS-RECV: Message ID ATTITUDE type attitude received at 1748099791.133348
2025-05-24 17:16:31,133 - GS-RECV: Message ID GLOBAL_POSITION_INT type position received at 1748099791.133440
2025-05-24 17:16:31,874 - DRONE-SEND: Message ID ATTITUDE type attitude sent at 1748099791.874391
2025-05-24 17:16:31,874 - DRONE-SEND: Message ID GLOBAL_POSITION_INT type position sent at 1748099791.874623
2025-05-24 17:16:31,885 - GS-RECV: Message ID ATTITUDE type attitude received at 1748099791.885543
2025-05-24 17:16:31,890 - GS-RECV: Message ID GLOBAL_POSITION_INT type position received at 1748099791.890711
2025-05-24 17:16:32,375 - DRONE-SEND: Message ID ATTITUDE type attitude sent at 1748099792.375774
2025-05-24 17:16:32,376 - DRONE-SEND: Message ID GLOBAL_POSITION_INT type position sent at 1748099792.375995
2025-05-24 17:16:32,381 - GS-RECV: Message ID ATTITUDE type attitude received at 1748099792.381334
2025-05-24 17:16:32,381 - GS-RECV: Message ID GLOBAL_POSITION_INT type position received at 1748099792.381456
2025-05-24 17:16:36,207 - DRONE-SEND: Message ID ATTITUDE type attitude sent at 1748099796.207076
2025-05-24 17:16:36,207 - DRONE-SEND: Message ID GLOBAL_POSITION_INT type position sent at 1748099796.207298
2025-05-24 17:16:36,218 - GS-RECV: Message ID ATTITUDE type attitude received at 1748099796.218213
2025-05-24 17:16:36,233 - GS-RECV: Message ID GLOBAL_POSITION_INT type position received at 1748099796.233518
2025-05-24 17:16:36,708 - DRONE-SEND: Message ID ATTITUDE type attitude sent at 1748099796.708582
2025-05-24 17:16:36,708 - DRONE-SEND: Message ID GLOBAL_POSITION_INT type position sent at 1748099796.708793
2025-05-24 17:16:36,714 - GS-RECV: Message ID ATTITUDE type attitude received at 1748099796.714246
2025-05-24 17:16:36,719 - GS-RECV: Message ID GLOBAL_POSITION_INT type position received at 1748099796.719384
2025-05-24 17:16:37,455 - DRONE-SEND: Message ID ATTITUDE type attitude sent at 1748099797.455781
2025-05-24 17:16:37,456 - DRONE-SEND: Message ID GLOBAL_POSITION_INT type position sent at 1748099797.456003
2025-05-24 17:16:37,461 - GS-RECV: Message ID ATTITUDE type attitude received at 1748099797.461950
2025-05-24 17:16:37,467 - GS-RECV: Message ID GLOBAL_POSITION_INT type position received at 1748099797.467142
2025-05-24 17:16:37,957 - DRONE-SEND: Message ID ATTITUDE type attitude sent at 1748099797.957233
2025-05-24 17:16:37,957 - DRONE-SEND: Message ID GLOBAL_POSITION_INT type position sent at 1748099797.957464
2025-05-24 17:16:37,967 - GS-RECV: Message ID ATTITUDE type attitude received at 1748099797.967792
2025-05-24 17:16:37,967 - GS-RECV: Message ID GLOBAL_POSITION_INT type position received at 1748099797.967878
2025-05-24 17:16:38,704 - DRONE-SEND: Message ID ATTITUDE type attitude sent at 1748099798.704672
2025-05-24 17:16:38,704 - DRONE-SEND: Message ID GLOBAL_POSITION_INT type position sent at 1748099798.704876
2025-05-24 17:16:38,720 - GS-RECV: Message ID ATTITUDE type attitude received at 1748099798.720721
2025-05-24 17:16:38,725 - GS-RECV: Message ID GLOBAL_POSITION_INT type position received at 1748099798.725906
2025-05-24 17:16:39,206 - DRONE-SEND: Message ID ATTITUDE type attitude sent at 1748099799.206048
2025-05-24 17:16:39,206 - DRONE-SEND: Message ID GLOBAL_POSITION_INT type position sent at 1748099799.206290
2025-05-24 17:16:39,211 - GS-RECV: Message ID ATTITUDE type attitude received at 1748099799.211561
2025-05-24 17:16:39,211 - GS-RECV: Message ID GLOBAL_POSITION_INT type position received at 1748099799.211662
2025-05-24 17:16:39,707 - DRONE-SEND: Message ID ATTITUDE type attitude sent at 1748099799.707556
2025-05-24 17:16:39,707 - DRONE-SEND: Message ID GLOBAL_POSITION_INT type position sent at 1748099799.707730
2025-05-24 17:16:39,718 - GS-RECV: Message ID ATTITUDE type attitude received at 1748099799.718096
2025-05-24 17:16:39,723 - GS-RECV: Message ID GLOBAL_POSITION_INT type position received at 1748099799.723252
2025-05-24 17:16:40,457 - DRONE-SEND: Message ID ATTITUDE type attitude sent at 1748099800.457303
2025-05-24 17:16:40,457 - DRONE-SEND: Message ID GLOBAL_POSITION_INT type position sent at 1748099800.457511
2025-05-24 17:16:40,463 - GS-RECV: Message ID ATTITUDE type attitude received at 1748099800.463433
2025-05-24 17:16:40,473 - GS-RECV: Message ID GLOBAL_POSITION_INT type position received at 1748099800.473602
2025-05-24 17:16:40,957 - DRONE-SEND: Message ID ATTITUDE type attitude sent at 1748099800.957841
2025-05-24 17:16:40,958 - DRONE-SEND: Message ID GLOBAL_POSITION_INT type position sent at 1748099800.958034
2025-05-24 17:16:40,963 - GS-RECV: Message ID ATTITUDE type attitude received at 1748099800.963778
2025-05-24 17:16:40,968 - GS-RECV: Message ID GLOBAL_POSITION_INT type position received at 1748099800.968909
2025-05-24 17:16:41,705 - DRONE-SEND: Message ID ATTITUDE type attitude sent at 1748099801.705277
2025-05-24 17:16:41,705 - DRONE-SEND: Message ID GLOBAL_POSITION_INT type position sent at 1748099801.705510
2025-05-24 17:16:41,710 - GS-RECV: Message ID ATTITUDE type attitude received at 1748099801.710906
2025-05-24 17:16:41,711 - GS-RECV: Message ID GLOBAL_POSITION_INT type position received at 1748099801.710996
2025-05-24 17:16:42,206 - DRONE-SEND: Message ID ATTITUDE type attitude sent at 1748099802.206691
2025-05-24 17:16:42,206 - DRONE-SEND: Message ID GLOBAL_POSITION_INT type position sent at 1748099802.206916
2025-05-24 17:16:42,212 - GS-RECV: Message ID ATTITUDE type attitude received at 1748099802.212393
2025-05-24 17:16:42,232 - GS-RECV: Message ID GLOBAL_POSITION_INT type position received at 1748099802.232643
2025-05-24 17:16:42,708 - DRONE-SEND: Message ID ATTITUDE type attitude sent at 1748099802.708143
2025-05-24 17:16:42,708 - DRONE-SEND: Message ID GLOBAL_POSITION_INT type position sent at 1748099802.708339
2025-05-24 17:16:42,714 - GS-RECV: Message ID ATTITUDE type attitude received at 1748099802.714355
2025-05-24 17:16:42,714 - GS-RECV: Message ID GLOBAL_POSITION_INT type position received at 1748099802.714474
2025-05-24 17:16:43,454 - DRONE-SEND: Message ID ATTITUDE type attitude sent at 1748099803.454593
2025-05-24 17:16:43,454 - DRONE-SEND: Message ID GLOBAL_POSITION_INT type position sent at 1748099803.454792
2025-05-24 17:16:43,460 - GS-RECV: Message ID ATTITUDE type attitude received at 1748099803.460577
2025-05-24 17:16:43,470 - GS-RECV: Message ID GLOBAL_POSITION_INT type position received at 1748099803.470796
2025-05-24 17:16:43,956 - DRONE-SEND: Message ID ATTITUDE type attitude sent at 1748099803.955986
2025-05-24 17:16:43,956 - DRONE-SEND: Message ID GLOBAL_POSITION_INT type position sent at 1748099803.956154
2025-05-24 17:16:43,961 - GS-RECV: Message ID ATTITUDE type attitude received at 1748099803.961956
2025-05-24 17:16:43,967 - GS-RECV: Message ID GLOBAL_POSITION_INT type position received at 1748099803.967089
2025-05-24 17:16:44,705 - DRONE-SEND: Message ID ATTITUDE type attitude sent at 1748099804.705758
2025-05-24 17:16:44,705 - DRONE-SEND: Message ID GLOBAL_POSITION_INT type position sent at 1748099804.705928
2025-05-24 17:16:44,721 - GS-RECV: Message ID ATTITUDE type attitude received at 1748099804.721854
2025-05-24 17:16:44,732 - GS-RECV: Message ID GLOBAL_POSITION_INT type position received at 1748099804.732171
2025-05-24 17:16:45,207 - DRONE-SEND: Message ID ATTITUDE type attitude sent at 1748099805.207207
2025-05-24 17:16:45,207 - DRONE-SEND: Message ID GLOBAL_POSITION_INT type position sent at 1748099805.207389
2025-05-24 17:16:45,217 - GS-RECV: Message ID ATTITUDE type attitude received at 1748099805.217913
2025-05-24 17:16:45,228 - GS-RECV: Message ID GLOBAL_POSITION_INT type position received at 1748099805.228112
2025-05-24 17:16:45,708 - DRONE-SEND: Message ID ATTITUDE type attitude sent at 1748099805.708631
2025-05-24 17:16:45,708 - DRONE-SEND: Message ID GLOBAL_POSITION_INT type position sent at 1748099805.708817
2025-05-24 17:16:45,714 - GS-RECV: Message ID ATTITUDE type attitude received at 1748099805.714266
2025-05-24 17:16:45,719 - GS-RECV: Message ID GLOBAL_POSITION_INT type position received at 1748099805.719550
2025-05-24 17:16:46,456 - DRONE-SEND: Message ID ATTITUDE type attitude sent at 1748099806.455961
2025-05-24 17:16:46,456 - DRONE-SEND: Message ID GLOBAL_POSITION_INT type position sent at 1748099806.456146
2025-05-24 17:16:46,462 - GS-RECV: Message ID ATTITUDE type attitude received at 1748099806.462025
2025-05-24 17:16:46,482 - GS-RECV: Message ID GLOBAL_POSITION_INT type position received at 1748099806.482336
2025-05-24 17:16:47,204 - DRONE-SEND: Message ID ATTITUDE type attitude sent at 1748099807.204022
2025-05-24 17:16:47,204 - DRONE-SEND: Message ID GLOBAL_POSITION_INT type position sent at 1748099807.204210
2025-05-24 17:16:47,209 - GS-RECV: Message ID ATTITUDE type attitude received at 1748099807.209774
2025-05-24 17:16:47,214 - GS-RECV: Message ID GLOBAL_POSITION_INT type position received at 1748099807.214948
2025-05-24 17:16:47,705 - DRONE-SEND: Message ID ATTITUDE type attitude sent at 1748099807.705584
2025-05-24 17:16:47,705 - DRONE-SEND: Message ID GLOBAL_POSITION_INT type position sent at 1748099807.705804
2025-05-24 17:16:47,716 - GS-RECV: Message ID ATTITUDE type attitude received at 1748099807.716789
2025-05-24 17:16:47,716 - GS-RECV: Message ID GLOBAL_POSITION_INT type position received at 1748099807.716878
2025-05-24 17:16:48,208 - DRONE-SEND: Message ID ATTITUDE type attitude sent at 1748099808.208580
2025-05-24 17:16:48,208 - DRONE-SEND: Message ID GLOBAL_POSITION_INT type position sent at 1748099808.208769
2025-05-24 17:16:48,224 - GS-RECV: Message ID ATTITUDE type attitude received at 1748099808.224271
2025-05-24 17:16:48,224 - GS-RECV: Message ID GLOBAL_POSITION_INT type position received at 1748099808.224390
2025-05-24 17:16:48,955 - DRONE-SEND: Message ID ATTITUDE type attitude sent at 1748099808.955051
2025-05-24 17:16:48,955 - DRONE-SEND: Message ID GLOBAL_POSITION_INT type position sent at 1748099808.955252
2025-05-24 17:16:48,966 - GS-RECV: Message ID ATTITUDE type attitude received at 1748099808.966162
2025-05-24 17:16:48,976 - GS-RECV: Message ID GLOBAL_POSITION_INT type position received at 1748099808.976382
2025-05-24 17:16:49,456 - DRONE-SEND: Message ID ATTITUDE type attitude sent at 1748099809.456570
2025-05-24 17:16:49,456 - DRONE-SEND: Message ID GLOBAL_POSITION_INT type position sent at 1748099809.456762
2025-05-24 17:16:49,462 - GS-RECV: Message ID ATTITUDE type attitude received at 1748099809.462295
2025-05-24 17:16:49,482 - GS-RECV: Message ID GLOBAL_POSITION_INT type position received at 1748099809.482527
2025-05-24 17:16:49,958 - DRONE-SEND: Message ID ATTITUDE type attitude sent at 1748099809.957988
2025-05-24 17:16:49,958 - DRONE-SEND: Message ID GLOBAL_POSITION_INT type position sent at 1748099809.958195
2025-05-24 17:16:49,968 - GS-RECV: Message ID ATTITUDE type attitude received at 1748099809.968789
2025-05-24 17:16:49,985 - GS-RECV: Message ID GLOBAL_POSITION_INT type position received at 1748099809.985887
2025-05-24 17:16:50,708 - DRONE-SEND: Message ID ATTITUDE type attitude sent at 1748099810.708735
2025-05-24 17:16:50,708 - DRONE-SEND: Message ID GLOBAL_POSITION_INT type position sent at 1748099810.708976
2025-05-24 17:16:50,714 - GS-RECV: Message ID ATTITUDE type attitude received at 1748099810.714378
2025-05-24 17:16:50,714 - GS-RECV: Message ID GLOBAL_POSITION_INT type position received at 1748099810.714486
2025-05-24 17:16:51,454 - DRONE-SEND: Message ID ATTITUDE type attitude sent at 1748099811.454277
2025-05-24 17:16:51,454 - DRONE-SEND: Message ID GLOBAL_POSITION_INT type position sent at 1748099811.454521
2025-05-24 17:16:51,460 - GS-RECV: Message ID ATTITUDE type attitude received at 1748099811.460482
2025-05-24 17:16:51,475 - GS-RECV: Message ID GLOBAL_POSITION_INT type position received at 1748099811.475693
2025-05-24 17:16:51,957 - DRONE-SEND: Message ID ATTITUDE type attitude sent at 1748099811.957353
2025-05-24 17:16:51,957 - DRONE-SEND: Message ID GLOBAL_POSITION_INT type position sent at 1748099811.957515
2025-05-24 17:16:51,968 - GS-RECV: Message ID ATTITUDE type attitude received at 1748099811.968368
2025-05-24 17:16:51,968 - GS-RECV: Message ID GLOBAL_POSITION_INT type position received at 1748099811.968457
2025-05-24 17:16:52,706 - DRONE-SEND: Message ID ATTITUDE type attitude sent at 1748099812.706331
2025-05-24 17:16:52,706 - DRONE-SEND: Message ID GLOBAL_POSITION_INT type position sent at 1748099812.706547
2025-05-24 17:16:52,717 - GS-RECV: Message ID ATTITUDE type attitude received at 1748099812.717630
2025-05-24 17:16:52,717 - GS-RECV: Message ID GLOBAL_POSITION_INT type position received at 1748099812.717758
2025-05-24 17:16:53,208 - DRONE-SEND: Message ID ATTITUDE type attitude sent at 1748099813.208536
2025-05-24 17:16:53,208 - DRONE-SEND: Message ID GLOBAL_POSITION_INT type position sent at 1748099813.208749
2025-05-24 17:16:53,214 - GS-RECV: Message ID ATTITUDE type attitude received at 1748099813.214596
2025-05-24 17:16:53,224 - GS-RECV: Message ID GLOBAL_POSITION_INT type position received at 1748099813.224889
2025-05-24 17:16:53,955 - DRONE-SEND: Message ID ATTITUDE type attitude sent at 1748099813.954984
2025-05-24 17:16:53,955 - DRONE-SEND: Message ID GLOBAL_POSITION_INT type position sent at 1748099813.955192
2025-05-24 17:16:53,961 - GS-RECV: Message ID ATTITUDE type attitude received at 1748099813.961254
2025-05-24 17:16:53,966 - GS-RECV: Message ID GLOBAL_POSITION_INT type position received at 1748099813.966449
2025-05-24 17:16:54,456 - DRONE-SEND: Message ID ATTITUDE type attitude sent at 1748099814.456497
2025-05-24 17:16:54,456 - DRONE-SEND: Message ID GLOBAL_POSITION_INT type position sent at 1748099814.456717
2025-05-24 17:16:54,462 - GS-RECV: Message ID ATTITUDE type attitude received at 1748099814.462602
2025-05-24 17:16:54,467 - GS-RECV: Message ID GLOBAL_POSITION_INT type position received at 1748099814.467841
2025-05-24 17:16:54,958 - DRONE-SEND: Message ID ATTITUDE type attitude sent at 1748099814.958021
2025-05-24 17:16:54,958 - DRONE-SEND: Message ID GLOBAL_POSITION_INT type position sent at 1748099814.958298
2025-05-24 17:16:54,969 - GS-RECV: Message ID ATTITUDE type attitude received at 1748099814.969449
2025-05-24 17:16:54,984 - GS-RECV: Message ID GLOBAL_POSITION_INT type position received at 1748099814.984712
2025-05-24 17:16:55,459 - DRONE-SEND: Message ID ATTITUDE type attitude sent at 1748099815.459458
2025-05-24 17:16:55,459 - DRONE-SEND: Message ID GLOBAL_POSITION_INT type position sent at 1748099815.459644
2025-05-24 17:16:55,470 - GS-RECV: Message ID ATTITUDE type attitude received at 1748099815.470531
2025-05-24 17:16:55,495 - GS-RECV: Message ID GLOBAL_POSITION_INT type position received at 1748099815.495834
2025-05-24 17:16:56,207 - DRONE-SEND: Message ID ATTITUDE type attitude sent at 1748099816.207556
2025-05-24 17:16:56,207 - DRONE-SEND: Message ID GLOBAL_POSITION_INT type position sent at 1748099816.207798
2025-05-24 17:16:56,218 - GS-RECV: Message ID ATTITUDE type attitude received at 1748099816.218110
2025-05-24 17:16:56,233 - GS-RECV: Message ID GLOBAL_POSITION_INT type position received at 1748099816.233271
2025-05-24 17:16:56,956 - DRONE-SEND: Message ID ATTITUDE type attitude sent at 1748099816.956412
2025-05-24 17:16:56,956 - DRONE-SEND: Message ID GLOBAL_POSITION_INT type position sent at 1748099816.956705
2025-05-24 17:16:56,962 - GS-RECV: Message ID ATTITUDE type attitude received at 1748099816.962239
2025-05-24 17:16:56,967 - GS-RECV: Message ID GLOBAL_POSITION_INT type position received at 1748099816.967374
2025-05-24 17:16:57,457 - DRONE-SEND: Message ID ATTITUDE type attitude sent at 1748099817.457926
2025-05-24 17:16:57,458 - DRONE-SEND: Message ID GLOBAL_POSITION_INT type position sent at 1748099817.458111
2025-05-24 17:16:57,469 - GS-RECV: Message ID ATTITUDE type attitude received at 1748099817.469017
2025-05-24 17:16:57,479 - GS-RECV: Message ID GLOBAL_POSITION_INT type position received at 1748099817.479464
2025-05-24 17:16:57,959 - DRONE-SEND: Message ID ATTITUDE type attitude sent at 1748099817.959381
2025-05-24 17:16:57,959 - DRONE-SEND: Message ID GLOBAL_POSITION_INT type position sent at 1748099817.959570
2025-05-24 17:16:57,975 - GS-RECV: Message ID ATTITUDE type attitude received at 1748099817.975174
2025-05-24 17:16:57,975 - GS-RECV: Message ID GLOBAL_POSITION_INT type position received at 1748099817.975271
2025-05-24 17:16:58,451 - GS-SEND: Message ID {'mode': 'GUIDED', 'takeoff_alt': 10} type mode_GUIDED sent at 1748099818.446401
2025-05-24 17:16:58,457 - DRONE-RECV: Message ID {'mode': 'GUIDED', 'takeoff_alt': 10} type mode_GUIDED received at 1748099818.457039
2025-05-24 17:16:58,708 - DRONE-SEND: Message ID ATTITUDE type attitude sent at 1748099818.708386
2025-05-24 17:16:58,708 - DRONE-SEND: Message ID GLOBAL_POSITION_INT type position sent at 1748099818.708551
2025-05-24 17:16:59,454 - DRONE-SEND: Message ID ATTITUDE type attitude sent at 1748099819.454722
2025-05-24 17:16:59,454 - DRONE-SEND: Message ID GLOBAL_POSITION_INT type position sent at 1748099819.454893
2025-05-24 17:17:00,206 - DRONE-SEND: Message ID ATTITUDE type attitude sent at 1748099820.206924
2025-05-24 17:17:00,207 - DRONE-SEND: Message ID GLOBAL_POSITION_INT type position sent at 1748099820.207069
2025-05-24 17:17:00,457 - DRONE-EXEC: Message ID {'mode': 'GUIDED', 'takeoff_alt': 10} type mode_GUIDED executed - Transit: 0.00ms, Processing: 2000.39ms, Total: 2000.39ms, TLS: False
2025-05-24 17:17:00,462 - GS-RECV: Message ID ATTITUDE type attitude received at 1748099820.462864
2025-05-24 17:17:00,468 - GS-RECV: Message ID GLOBAL_POSITION_INT type position received at 1748099820.468110
2025-05-24 17:17:00,468 - GS-RECV: Message ID ATTITUDE type attitude received at 1748099820.468198
2025-05-24 17:17:00,468 - GS-RECV: Message ID GLOBAL_POSITION_INT type position received at 1748099820.468249
2025-05-24 17:17:00,468 - GS-RECV: Message ID ATTITUDE type attitude received at 1748099820.468288
2025-05-24 17:17:00,468 - GS-RECV: Message ID GLOBAL_POSITION_INT type position received at 1748099820.468336
2025-05-24 17:17:00,958 - DRONE-SEND: Message ID ATTITUDE type attitude sent at 1748099820.958406
2025-05-24 17:17:00,958 - DRONE-SEND: Message ID GLOBAL_POSITION_INT type position sent at 1748099820.958592
2025-05-24 17:17:00,963 - GS-RECV: Message ID ATTITUDE type attitude received at 1748099820.963824
2025-05-24 17:17:00,963 - GS-RECV: Message ID GLOBAL_POSITION_INT type position received at 1748099820.963930
2025-05-24 17:17:01,706 - DRONE-SEND: Message ID ATTITUDE type attitude sent at 1748099821.706534
2025-05-24 17:17:01,706 - DRONE-SEND: Message ID GLOBAL_POSITION_INT type position sent at 1748099821.706750
2025-05-24 17:17:01,712 - GS-RECV: Message ID ATTITUDE type attitude received at 1748099821.712741
2025-05-24 17:17:01,712 - GS-RECV: Message ID GLOBAL_POSITION_INT type position received at 1748099821.712832
2025-05-24 17:17:02,209 - DRONE-SEND: Message ID ATTITUDE type attitude sent at 1748099822.209643
2025-05-24 17:17:02,209 - DRONE-SEND: Message ID GLOBAL_POSITION_INT type position sent at 1748099822.209842
2025-05-24 17:17:02,215 - GS-RECV: Message ID ATTITUDE type attitude received at 1748099822.215817
2025-05-24 17:17:02,215 - GS-RECV: Message ID GLOBAL_POSITION_INT type position received at 1748099822.215926
2025-05-24 17:17:02,957 - DRONE-SEND: Message ID ATTITUDE type attitude sent at 1748099822.957643
2025-05-24 17:17:02,957 - DRONE-SEND: Message ID GLOBAL_POSITION_INT type position sent at 1748099822.957807
2025-05-24 17:17:02,968 - GS-RECV: Message ID ATTITUDE type attitude received at 1748099822.968661
2025-05-24 17:17:03,005 - GS-RECV: Message ID GLOBAL_POSITION_INT type position received at 1748099823.005042
2025-05-24 17:17:03,708 - DRONE-SEND: Message ID ATTITUDE type attitude sent at 1748099823.708298
2025-05-24 17:17:03,708 - DRONE-SEND: Message ID GLOBAL_POSITION_INT type position sent at 1748099823.708508
2025-05-24 17:17:03,719 - GS-RECV: Message ID ATTITUDE type attitude received at 1748099823.719796
2025-05-24 17:17:03,725 - GS-RECV: Message ID GLOBAL_POSITION_INT type position received at 1748099823.725082
2025-05-24 17:17:04,209 - DRONE-SEND: Message ID ATTITUDE type attitude sent at 1748099824.209787
2025-05-24 17:17:04,210 - DRONE-SEND: Message ID GLOBAL_POSITION_INT type position sent at 1748099824.210031
2025-05-24 17:17:04,215 - GS-RECV: Message ID ATTITUDE type attitude received at 1748099824.215288
2025-05-24 17:17:04,215 - GS-RECV: Message ID GLOBAL_POSITION_INT type position received at 1748099824.215394
2025-05-24 17:17:04,957 - DRONE-SEND: Message ID ATTITUDE type attitude sent at 1748099824.957778
2025-05-24 17:17:04,957 - DRONE-SEND: Message ID GLOBAL_POSITION_INT type position sent at 1748099824.957943
2025-05-24 17:17:04,963 - GS-RECV: Message ID ATTITUDE type attitude received at 1748099824.963566
2025-05-24 17:17:04,978 - GS-RECV: Message ID GLOBAL_POSITION_INT type position received at 1748099824.978854
2025-05-24 17:17:05,707 - DRONE-SEND: Message ID ATTITUDE type attitude sent at 1748099825.707566
2025-05-24 17:17:05,707 - DRONE-SEND: Message ID GLOBAL_POSITION_INT type position sent at 1748099825.707732
2025-05-24 17:17:05,713 - GS-RECV: Message ID ATTITUDE type attitude received at 1748099825.713665
2025-05-24 17:17:05,713 - GS-RECV: Message ID GLOBAL_POSITION_INT type position received at 1748099825.713767
2025-05-24 17:17:06,455 - DRONE-SEND: Message ID ATTITUDE type attitude sent at 1748099826.455672
2025-05-24 17:17:06,455 - DRONE-SEND: Message ID GLOBAL_POSITION_INT type position sent at 1748099826.455898
2025-05-24 17:17:06,462 - GS-RECV: Message ID ATTITUDE type attitude received at 1748099826.462012
2025-05-24 17:17:06,467 - GS-RECV: Message ID GLOBAL_POSITION_INT type position received at 1748099826.467218
2025-05-24 17:17:06,957 - DRONE-SEND: Message ID ATTITUDE type attitude sent at 1748099826.957124
2025-05-24 17:17:06,957 - DRONE-SEND: Message ID GLOBAL_POSITION_INT type position sent at 1748099826.957291
2025-05-24 17:17:06,962 - GS-RECV: Message ID ATTITUDE type attitude received at 1748099826.962605
2025-05-24 17:17:06,962 - GS-RECV: Message ID GLOBAL_POSITION_INT type position received at 1748099826.962707
2025-05-24 17:17:07,458 - DRONE-SEND: Message ID ATTITUDE type attitude sent at 1748099827.458711
2025-05-24 17:17:07,458 - DRONE-SEND: Message ID GLOBAL_POSITION_INT type position sent at 1748099827.458896
2025-05-24 17:17:07,464 - GS-RECV: Message ID ATTITUDE type attitude received at 1748099827.464960
2025-05-24 17:17:07,480 - GS-RECV: Message ID GLOBAL_POSITION_INT type position received at 1748099827.480461
2025-05-24 17:17:08,206 - DRONE-SEND: Message ID ATTITUDE type attitude sent at 1748099828.206722
2025-05-24 17:17:08,206 - DRONE-SEND: Message ID GLOBAL_POSITION_INT type position sent at 1748099828.206916
2025-05-24 17:17:08,213 - GS-RECV: Message ID ATTITUDE type attitude received at 1748099828.212989
2025-05-24 17:17:08,218 - GS-RECV: Message ID GLOBAL_POSITION_INT type position received at 1748099828.218126
2025-05-24 17:17:12,044 - DRONE-SEND: Message ID ATTITUDE type attitude sent at 1748099832.044876
2025-05-24 17:17:12,045 - DRONE-SEND: Message ID GLOBAL_POSITION_INT type position sent at 1748099832.045059
2025-05-24 17:17:12,050 - GS-RECV: Message ID ATTITUDE type attitude received at 1748099832.050312
2025-05-24 17:17:12,065 - GS-RECV: Message ID GLOBAL_POSITION_INT type position received at 1748099832.065544
2025-05-24 17:17:12,546 - DRONE-SEND: Message ID ATTITUDE type attitude sent at 1748099832.546328
2025-05-24 17:17:12,546 - DRONE-SEND: Message ID GLOBAL_POSITION_INT type position sent at 1748099832.546522
2025-05-24 17:17:12,551 - GS-RECV: Message ID ATTITUDE type attitude received at 1748099832.551833
2025-05-24 17:17:12,567 - GS-RECV: Message ID GLOBAL_POSITION_INT type position received at 1748099832.567215
2025-05-24 17:17:13,292 - DRONE-SEND: Message ID ATTITUDE type attitude sent at 1748099833.292931
2025-05-24 17:17:13,293 - DRONE-SEND: Message ID GLOBAL_POSITION_INT type position sent at 1748099833.293143
2025-05-24 17:17:13,298 - GS-RECV: Message ID ATTITUDE type attitude received at 1748099833.298589
2025-05-24 17:17:13,318 - GS-RECV: Message ID GLOBAL_POSITION_INT type position received at 1748099833.318812
2025-05-24 17:17:13,797 - DRONE-SEND: Message ID ATTITUDE type attitude sent at 1748099833.797596
2025-05-24 17:17:13,797 - DRONE-SEND: Message ID GLOBAL_POSITION_INT type position sent at 1748099833.797797
2025-05-24 17:17:13,803 - GS-RECV: Message ID ATTITUDE type attitude received at 1748099833.803835
2025-05-24 17:17:13,803 - GS-RECV: Message ID GLOBAL_POSITION_INT type position received at 1748099833.803960
2025-05-24 17:17:14,544 - DRONE-SEND: Message ID ATTITUDE type attitude sent at 1748099834.543975
2025-05-24 17:17:14,544 - DRONE-SEND: Message ID GLOBAL_POSITION_INT type position sent at 1748099834.544144
2025-05-24 17:17:14,550 - GS-RECV: Message ID ATTITUDE type attitude received at 1748099834.550102
2025-05-24 17:17:14,560 - GS-RECV: Message ID GLOBAL_POSITION_INT type position received at 1748099834.560381
2025-05-24 17:17:15,047 - DRONE-SEND: Message ID ATTITUDE type attitude sent at 1748099835.047223
2025-05-24 17:17:15,047 - DRONE-SEND: Message ID GLOBAL_POSITION_INT type position sent at 1748099835.047448
2025-05-24 17:17:15,058 - GS-RECV: Message ID ATTITUDE type attitude received at 1748099835.058427
2025-05-24 17:17:15,068 - GS-RECV: Message ID GLOBAL_POSITION_INT type position received at 1748099835.068721
2025-05-24 17:17:15,793 - DRONE-SEND: Message ID ATTITUDE type attitude sent at 1748099835.793580
2025-05-24 17:17:15,793 - DRONE-SEND: Message ID GLOBAL_POSITION_INT type position sent at 1748099835.793762
2025-05-24 17:17:15,799 - GS-RECV: Message ID ATTITUDE type attitude received at 1748099835.799847
2025-05-24 17:17:15,820 - GS-RECV: Message ID GLOBAL_POSITION_INT type position received at 1748099835.820222
2025-05-24 17:17:16,295 - DRONE-SEND: Message ID ATTITUDE type attitude sent at 1748099836.295063
2025-05-24 17:17:16,295 - DRONE-SEND: Message ID GLOBAL_POSITION_INT type position sent at 1748099836.295241
2025-05-24 17:17:16,301 - GS-RECV: Message ID ATTITUDE type attitude received at 1748099836.301268
2025-05-24 17:17:16,321 - GS-RECV: Message ID GLOBAL_POSITION_INT type position received at 1748099836.321575
2025-05-24 17:17:16,796 - DRONE-SEND: Message ID ATTITUDE type attitude sent at 1748099836.796582
2025-05-24 17:17:16,796 - DRONE-SEND: Message ID GLOBAL_POSITION_INT type position sent at 1748099836.796808
2025-05-24 17:17:16,802 - GS-RECV: Message ID ATTITUDE type attitude received at 1748099836.802851
2025-05-24 17:17:16,808 - GS-RECV: Message ID GLOBAL_POSITION_INT type position received at 1748099836.808039
2025-05-24 17:17:17,543 - DRONE-SEND: Message ID ATTITUDE type attitude sent at 1748099837.543012
2025-05-24 17:17:17,543 - DRONE-SEND: Message ID GLOBAL_POSITION_INT type position sent at 1748099837.543189
2025-05-24 17:17:17,549 - GS-RECV: Message ID ATTITUDE type attitude received at 1748099837.549105
2025-05-24 17:17:17,549 - GS-RECV: Message ID GLOBAL_POSITION_INT type position received at 1748099837.549219
2025-05-24 17:17:18,044 - DRONE-SEND: Message ID ATTITUDE type attitude sent at 1748099838.044499
2025-05-24 17:17:18,044 - DRONE-SEND: Message ID GLOBAL_POSITION_INT type position sent at 1748099838.044667
2025-05-24 17:17:18,055 - GS-RECV: Message ID ATTITUDE type attitude received at 1748099838.055498
2025-05-24 17:17:18,065 - GS-RECV: Message ID GLOBAL_POSITION_INT type position received at 1748099838.065696
2025-05-24 17:17:18,545 - DRONE-SEND: Message ID ATTITUDE type attitude sent at 1748099838.545870
2025-05-24 17:17:18,546 - DRONE-SEND: Message ID GLOBAL_POSITION_INT type position sent at 1748099838.546043
2025-05-24 17:17:18,551 - GS-RECV: Message ID ATTITUDE type attitude received at 1748099838.551263
2025-05-24 17:17:18,561 - GS-RECV: Message ID GLOBAL_POSITION_INT type position received at 1748099838.561459
2025-05-24 17:17:19,047 - DRONE-SEND: Message ID ATTITUDE type attitude sent at 1748099839.047353
2025-05-24 17:17:19,047 - DRONE-SEND: Message ID GLOBAL_POSITION_INT type position sent at 1748099839.047549
2025-05-24 17:17:19,057 - GS-RECV: Message ID ATTITUDE type attitude received at 1748099839.057865
2025-05-24 17:17:19,073 - GS-RECV: Message ID GLOBAL_POSITION_INT type position received at 1748099839.073150
2025-05-24 17:17:19,793 - DRONE-SEND: Message ID ATTITUDE type attitude sent at 1748099839.793909
2025-05-24 17:17:19,794 - DRONE-SEND: Message ID GLOBAL_POSITION_INT type position sent at 1748099839.794145
2025-05-24 17:17:19,805 - GS-RECV: Message ID ATTITUDE type attitude received at 1748099839.805305
2025-05-24 17:17:19,810 - GS-RECV: Message ID GLOBAL_POSITION_INT type position received at 1748099839.810536
2025-05-24 17:17:20,296 - DRONE-SEND: Message ID ATTITUDE type attitude sent at 1748099840.296225
2025-05-24 17:17:20,296 - DRONE-SEND: Message ID GLOBAL_POSITION_INT type position sent at 1748099840.296425
2025-05-24 17:17:20,301 - GS-RECV: Message ID ATTITUDE type attitude received at 1748099840.301688
2025-05-24 17:17:20,301 - GS-RECV: Message ID GLOBAL_POSITION_INT type position received at 1748099840.301780
2025-05-24 17:17:20,797 - DRONE-SEND: Message ID ATTITUDE type attitude sent at 1748099840.797618
2025-05-24 17:17:20,797 - DRONE-SEND: Message ID GLOBAL_POSITION_INT type position sent at 1748099840.797840
2025-05-24 17:17:20,808 - GS-RECV: Message ID ATTITUDE type attitude received at 1748099840.808182
2025-05-24 17:17:20,833 - GS-RECV: Message ID GLOBAL_POSITION_INT type position received at 1748099840.833471
2025-05-24 17:17:21,545 - DRONE-SEND: Message ID ATTITUDE type attitude sent at 1748099841.545618
2025-05-24 17:17:21,545 - DRONE-SEND: Message ID GLOBAL_POSITION_INT type position sent at 1748099841.545773
2025-05-24 17:17:21,556 - GS-RECV: Message ID ATTITUDE type attitude received at 1748099841.556778
2025-05-24 17:17:21,567 - GS-RECV: Message ID GLOBAL_POSITION_INT type position received at 1748099841.567038
2025-05-24 17:17:22,048 - DRONE-SEND: Message ID ATTITUDE type attitude sent at 1748099842.048014
2025-05-24 17:17:22,048 - DRONE-SEND: Message ID GLOBAL_POSITION_INT type position sent at 1748099842.048233
2025-05-24 17:17:22,053 - GS-RECV: Message ID ATTITUDE type attitude received at 1748099842.053669
2025-05-24 17:17:22,079 - GS-RECV: Message ID GLOBAL_POSITION_INT type position received at 1748099842.079101
2025-05-24 17:17:22,796 - DRONE-SEND: Message ID ATTITUDE type attitude sent at 1748099842.796907
2025-05-24 17:17:22,797 - DRONE-SEND: Message ID GLOBAL_POSITION_INT type position sent at 1748099842.797107
2025-05-24 17:17:22,802 - GS-RECV: Message ID ATTITUDE type attitude received at 1748099842.802678
2025-05-24 17:17:22,812 - GS-RECV: Message ID GLOBAL_POSITION_INT type position received at 1748099842.812895
2025-05-24 17:17:23,543 - DRONE-SEND: Message ID ATTITUDE type attitude sent at 1748099843.543295
2025-05-24 17:17:23,543 - DRONE-SEND: Message ID GLOBAL_POSITION_INT type position sent at 1748099843.543491
2025-05-24 17:17:23,548 - GS-RECV: Message ID ATTITUDE type attitude received at 1748099843.548888
2025-05-24 17:17:23,559 - GS-RECV: Message ID GLOBAL_POSITION_INT type position received at 1748099843.559100
2025-05-24 17:17:24,044 - DRONE-SEND: Message ID ATTITUDE type attitude sent at 1748099844.044815
2025-05-24 17:17:24,045 - DRONE-SEND: Message ID GLOBAL_POSITION_INT type position sent at 1748099844.044992
2025-05-24 17:17:24,051 - GS-RECV: Message ID ATTITUDE type attitude received at 1748099844.051165
2025-05-24 17:17:24,051 - GS-RECV: Message ID GLOBAL_POSITION_INT type position received at 1748099844.051280
2025-05-24 17:17:24,546 - DRONE-SEND: Message ID ATTITUDE type attitude sent at 1748099844.546289
2025-05-24 17:17:24,546 - DRONE-SEND: Message ID GLOBAL_POSITION_INT type position sent at 1748099844.546470
2025-05-24 17:17:24,552 - GS-RECV: Message ID ATTITUDE type attitude received at 1748099844.552029
2025-05-24 17:17:24,562 - GS-RECV: Message ID GLOBAL_POSITION_INT type position received at 1748099844.562348
2025-05-24 17:17:25,047 - DRONE-SEND: Message ID ATTITUDE type attitude sent at 1748099845.047699
2025-05-24 17:17:25,047 - DRONE-SEND: Message ID GLOBAL_POSITION_INT type position sent at 1748099845.047880
2025-05-24 17:17:25,058 - GS-RECV: Message ID ATTITUDE type attitude received at 1748099845.058394
2025-05-24 17:17:25,073 - GS-RECV: Message ID GLOBAL_POSITION_INT type position received at 1748099845.073825
2025-05-24 17:17:25,795 - DRONE-SEND: Message ID ATTITUDE type attitude sent at 1748099845.795104
2025-05-24 17:17:25,795 - DRONE-SEND: Message ID GLOBAL_POSITION_INT type position sent at 1748099845.795312
2025-05-24 17:17:25,810 - GS-RECV: Message ID ATTITUDE type attitude received at 1748099845.810934
2025-05-24 17:17:25,836 - GS-RECV: Message ID GLOBAL_POSITION_INT type position received at 1748099845.836554
2025-05-24 17:17:26,297 - DRONE-SEND: Message ID ATTITUDE type attitude sent at 1748099846.297344
2025-05-24 17:17:26,297 - DRONE-SEND: Message ID GLOBAL_POSITION_INT type position sent at 1748099846.297547
2025-05-24 17:17:26,302 - GS-RECV: Message ID ATTITUDE type attitude received at 1748099846.302872
2025-05-24 17:17:26,308 - GS-RECV: Message ID GLOBAL_POSITION_INT type position received at 1748099846.308061
2025-05-24 17:17:27,045 - DRONE-SEND: Message ID ATTITUDE type attitude sent at 1748099847.045385
2025-05-24 17:17:27,045 - DRONE-SEND: Message ID GLOBAL_POSITION_INT type position sent at 1748099847.045640
2025-05-24 17:17:27,056 - GS-RECV: Message ID ATTITUDE type attitude received at 1748099847.056247
2025-05-24 17:17:27,066 - GS-RECV: Message ID GLOBAL_POSITION_INT type position received at 1748099847.066504
2025-05-24 17:17:27,546 - DRONE-SEND: Message ID ATTITUDE type attitude sent at 1748099847.546732
2025-05-24 17:17:27,546 - DRONE-SEND: Message ID GLOBAL_POSITION_INT type position sent at 1748099847.546917
2025-05-24 17:17:27,552 - GS-RECV: Message ID ATTITUDE type attitude received at 1748099847.552708
2025-05-24 17:17:27,562 - GS-RECV: Message ID GLOBAL_POSITION_INT type position received at 1748099847.562887
2025-05-24 17:17:28,295 - DRONE-SEND: Message ID ATTITUDE type attitude sent at 1748099848.295820
2025-05-24 17:17:28,296 - DRONE-SEND: Message ID GLOBAL_POSITION_INT type position sent at 1748099848.296042
2025-05-24 17:17:28,302 - GS-RECV: Message ID ATTITUDE type attitude received at 1748099848.302040
2025-05-24 17:17:28,317 - GS-RECV: Message ID GLOBAL_POSITION_INT type position received at 1748099848.317264
2025-05-24 17:17:28,797 - DRONE-SEND: Message ID ATTITUDE type attitude sent at 1748099848.797234
2025-05-24 17:17:28,797 - DRONE-SEND: Message ID GLOBAL_POSITION_INT type position sent at 1748099848.797405
2025-05-24 17:17:28,807 - GS-RECV: Message ID ATTITUDE type attitude received at 1748099848.807781
2025-05-24 17:17:28,833 - GS-RECV: Message ID GLOBAL_POSITION_INT type position received at 1748099848.833173
2025-05-24 17:17:29,544 - DRONE-SEND: Message ID ATTITUDE type attitude sent at 1748099849.544430
2025-05-24 17:17:29,544 - DRONE-SEND: Message ID GLOBAL_POSITION_INT type position sent at 1748099849.544596
2025-05-24 17:17:29,549 - GS-RECV: Message ID ATTITUDE type attitude received at 1748099849.549909
2025-05-24 17:17:29,555 - GS-RECV: Message ID GLOBAL_POSITION_INT type position received at 1748099849.555086
2025-05-24 17:17:30,046 - DRONE-SEND: Message ID ATTITUDE type attitude sent at 1748099850.046942
2025-05-24 17:17:30,047 - DRONE-SEND: Message ID GLOBAL_POSITION_INT type position sent at 1748099850.047250
2025-05-24 17:17:30,057 - GS-RECV: Message ID ATTITUDE type attitude received at 1748099850.057754
2025-05-24 17:17:30,068 - GS-RECV: Message ID GLOBAL_POSITION_INT type position received at 1748099850.067991
2025-05-24 17:17:30,794 - DRONE-SEND: Message ID ATTITUDE type attitude sent at 1748099850.794036
2025-05-24 17:17:30,794 - DRONE-SEND: Message ID GLOBAL_POSITION_INT type position sent at 1748099850.794211
2025-05-24 17:17:30,800 - GS-RECV: Message ID ATTITUDE type attitude received at 1748099850.800032
2025-05-24 17:17:30,820 - GS-RECV: Message ID GLOBAL_POSITION_INT type position received at 1748099850.820317
2025-05-24 17:17:31,297 - DRONE-SEND: Message ID ATTITUDE type attitude sent at 1748099851.297159
2025-05-24 17:17:31,297 - DRONE-SEND: Message ID GLOBAL_POSITION_INT type position sent at 1748099851.297346
2025-05-24 17:17:31,308 - GS-RECV: Message ID ATTITUDE type attitude received at 1748099851.308096
2025-05-24 17:17:31,308 - GS-RECV: Message ID GLOBAL_POSITION_INT type position received at 1748099851.308201
2025-05-24 17:17:32,045 - DRONE-SEND: Message ID ATTITUDE type attitude sent at 1748099852.045377
2025-05-24 17:17:32,045 - DRONE-SEND: Message ID GLOBAL_POSITION_INT type position sent at 1748099852.045642
2025-05-24 17:17:32,054 - GS-SEND: Message ID {'velocity': {'vx': 0.0, 'vy': 0.0, 'vz': -2.5}} type velocity_down sent at 1748099852.054674
2025-05-24 17:17:32,054 - GS-RECV: Message ID ATTITUDE type attitude received at 1748099852.054841
2025-05-24 17:17:32,060 - GS-RECV: Message ID GLOBAL_POSITION_INT type position received at 1748099852.060182
2025-05-24 17:17:32,070 - DRONE-RECV: Message ID {'velocity': {'vx': 0.0, 'vy': 0.0, 'vz': -2.5}} type velocity received at 1748099852.070559
2025-05-24 17:17:32,070 - DRONE-EXEC: Message ID {'velocity': {'vx': 0.0, 'vy': 0.0, 'vz': -2.5}} type velocity executed - Transit: 0.00ms, Processing: 0.08ms, Total: 0.08ms, TLS: False
2025-05-24 17:17:32,546 - DRONE-SEND: Message ID ATTITUDE type attitude sent at 1748099852.546805
2025-05-24 17:17:32,547 - DRONE-SEND: Message ID GLOBAL_POSITION_INT type position sent at 1748099852.547022
2025-05-24 17:17:32,557 - GS-RECV: Message ID ATTITUDE type attitude received at 1748099852.557735
2025-05-24 17:17:32,602 - GS-RECV: Message ID GLOBAL_POSITION_INT type position received at 1748099852.602376
2025-05-24 17:17:33,048 - DRONE-SEND: Message ID ATTITUDE type attitude sent at 1748099853.048223
2025-05-24 17:17:33,048 - DRONE-SEND: Message ID GLOBAL_POSITION_INT type position sent at 1748099853.048433
