2025-05-24 17:12:00,076 - Ground Station started - TLS: Enabled - Automated: Enabled - Test: Enabled
2025-05-24 17:12:00,188 - Drone MQTT started - TLS: Enabled - Test: Disabled
2025-05-24 17:12:06,253 - DRONE-SEND: Message ID ATTITUDE type attitude sent at 1748099526.253083
2025-05-24 17:12:06,253 - DRONE-SEND: Message ID GLOBAL_POSITION_INT type position sent at 1748099526.253387
2025-05-24 17:12:06,258 - GS-RECV: Message ID ATTITUDE type attitude received at 1748099526.258716
2025-05-24 17:12:06,299 - GS-RECV: Message ID GLOBAL_POSITION_INT type position received at 1748099526.299818
2025-05-24 17:12:07,001 - DRONE-SEND: Message ID ATTITUDE type attitude sent at 1748099527.001113
2025-05-24 17:12:07,001 - DRONE-SEND: Message ID GLOBAL_POSITION_INT type position sent at 1748099527.001325
2025-05-24 17:12:07,012 - GS-RECV: Message ID ATTITUDE type attitude received at 1748099527.012384
2025-05-24 17:12:07,027 - GS-RECV: Message ID GLOBAL_POSITION_INT type position received at 1748099527.027666
2025-05-24 17:12:07,502 - DRONE-SEND: Message ID ATTITUDE type attitude sent at 1748099527.502754
2025-05-24 17:12:07,502 - DRONE-SEND: Message ID GLOBAL_POSITION_INT type position sent at 1748099527.502966
2025-05-24 17:12:07,508 - GS-RECV: Message ID ATTITUDE type attitude received at 1748099527.508923
2025-05-24 17:12:07,509 - GS-RECV: Message ID GLOBAL_POSITION_INT type position received at 1748099527.509042
2025-05-24 17:12:08,004 - DRONE-SEND: Message ID ATTITUDE type attitude sent at 1748099528.004872
2025-05-24 17:12:08,005 - DRONE-SEND: Message ID GLOBAL_POSITION_INT type position sent at 1748099528.005053
2025-05-24 17:12:08,015 - GS-RECV: Message ID ATTITUDE type attitude received at 1748099528.015716
2025-05-24 17:12:08,030 - GS-RECV: Message ID GLOBAL_POSITION_INT type position received at 1748099528.030932
2025-05-24 17:12:08,752 - DRONE-SEND: Message ID ATTITUDE type attitude sent at 1748099528.752096
2025-05-24 17:12:08,752 - DRONE-SEND: Message ID GLOBAL_POSITION_INT type position sent at 1748099528.752265
2025-05-24 17:12:08,768 - GS-RECV: Message ID ATTITUDE type attitude received at 1748099528.768130
2025-05-24 17:12:08,788 - GS-RECV: Message ID GLOBAL_POSITION_INT type position received at 1748099528.788533
2025-05-24 17:12:09,253 - DRONE-SEND: Message ID ATTITUDE type attitude sent at 1748099529.253696
2025-05-24 17:12:09,253 - DRONE-SEND: Message ID GLOBAL_POSITION_INT type position sent at 1748099529.253953
2025-05-24 17:12:09,264 - GS-RECV: Message ID ATTITUDE type attitude received at 1748099529.264965
2025-05-24 17:12:09,265 - GS-RECV: Message ID GLOBAL_POSITION_INT type position received at 1748099529.265090
2025-05-24 17:12:09,755 - DRONE-SEND: Message ID ATTITUDE type attitude sent at 1748099529.755221
2025-05-24 17:12:09,755 - DRONE-SEND: Message ID GLOBAL_POSITION_INT type position sent at 1748099529.755442
2025-05-24 17:12:09,766 - GS-RECV: Message ID ATTITUDE type attitude received at 1748099529.766515
2025-05-24 17:12:09,787 - GS-RECV: Message ID GLOBAL_POSITION_INT type position received at 1748099529.787259
2025-05-24 17:12:10,501 - DRONE-SEND: Message ID ATTITUDE type attitude sent at 1748099530.501544
2025-05-24 17:12:10,501 - DRONE-SEND: Message ID GLOBAL_POSITION_INT type position sent at 1748099530.501775
2025-05-24 17:12:10,512 - GS-RECV: Message ID ATTITUDE type attitude received at 1748099530.512271
2025-05-24 17:12:10,512 - GS-RECV: Message ID GLOBAL_POSITION_INT type position received at 1748099530.512400
2025-05-24 17:12:11,003 - DRONE-SEND: Message ID ATTITUDE type attitude sent at 1748099531.003045
2025-05-24 17:12:11,003 - DRONE-SEND: Message ID GLOBAL_POSITION_INT type position sent at 1748099531.003225
2025-05-24 17:12:11,013 - GS-RECV: Message ID ATTITUDE type attitude received at 1748099531.013628
2025-05-24 17:12:11,024 - GS-RECV: Message ID GLOBAL_POSITION_INT type position received at 1748099531.024793
2025-05-24 17:12:11,504 - DRONE-SEND: Message ID ATTITUDE type attitude sent at 1748099531.504546
2025-05-24 17:12:11,504 - DRONE-SEND: Message ID GLOBAL_POSITION_INT type position sent at 1748099531.504750
2025-05-24 17:12:11,515 - GS-RECV: Message ID ATTITUDE type attitude received at 1748099531.515164
2025-05-24 17:12:11,515 - GS-RECV: Message ID GLOBAL_POSITION_INT type position received at 1748099531.515321
2025-05-24 17:12:12,251 - DRONE-SEND: Message ID ATTITUDE type attitude sent at 1748099532.251731
2025-05-24 17:12:12,251 - DRONE-SEND: Message ID GLOBAL_POSITION_INT type position sent at 1748099532.251978
2025-05-24 17:12:12,263 - GS-RECV: Message ID ATTITUDE type attitude received at 1748099532.262999
2025-05-24 17:12:12,283 - GS-RECV: Message ID GLOBAL_POSITION_INT type position received at 1748099532.283425
2025-05-24 17:12:12,755 - DRONE-SEND: Message ID ATTITUDE type attitude sent at 1748099532.754974
2025-05-24 17:12:12,755 - DRONE-SEND: Message ID GLOBAL_POSITION_INT type position sent at 1748099532.755213
2025-05-24 17:12:12,770 - GS-RECV: Message ID ATTITUDE type attitude received at 1748099532.770740
2025-05-24 17:12:12,791 - GS-RECV: Message ID GLOBAL_POSITION_INT type position received at 1748099532.791189
2025-05-24 17:12:13,499 - DRONE-SEND: Message ID ATTITUDE type attitude sent at 1748099533.499632
2025-05-24 17:12:13,499 - DRONE-SEND: Message ID GLOBAL_POSITION_INT type position sent at 1748099533.499791
2025-05-24 17:12:13,510 - GS-RECV: Message ID ATTITUDE type attitude received at 1748099533.510743
2025-05-24 17:12:13,531 - GS-RECV: Message ID GLOBAL_POSITION_INT type position received at 1748099533.531077
2025-05-24 17:12:14,003 - DRONE-SEND: Message ID ATTITUDE type attitude sent at 1748099534.003680
2025-05-24 17:12:14,003 - DRONE-SEND: Message ID GLOBAL_POSITION_INT type position sent at 1748099534.003862
2025-05-24 17:12:14,014 - GS-RECV: Message ID ATTITUDE type attitude received at 1748099534.014613
2025-05-24 17:12:14,024 - GS-RECV: Message ID GLOBAL_POSITION_INT type position received at 1748099534.024835
2025-05-24 17:12:14,505 - DRONE-SEND: Message ID ATTITUDE type attitude sent at 1748099534.505114
2025-05-24 17:12:14,505 - DRONE-SEND: Message ID GLOBAL_POSITION_INT type position sent at 1748099534.505285
2025-05-24 17:12:14,515 - GS-RECV: Message ID ATTITUDE type attitude received at 1748099534.515653
2025-05-24 17:12:14,531 - GS-RECV: Message ID GLOBAL_POSITION_INT type position received at 1748099534.531001
2025-05-24 17:12:15,251 - DRONE-SEND: Message ID ATTITUDE type attitude sent at 1748099535.251518
2025-05-24 17:12:15,251 - DRONE-SEND: Message ID GLOBAL_POSITION_INT type position sent at 1748099535.251714
2025-05-24 17:12:15,262 - GS-RECV: Message ID ATTITUDE type attitude received at 1748099535.262097
2025-05-24 17:12:15,267 - GS-RECV: Message ID GLOBAL_POSITION_INT type position received at 1748099535.267330
2025-05-24 17:12:15,753 - DRONE-SEND: Message ID ATTITUDE type attitude sent at 1748099535.753048
2025-05-24 17:12:15,753 - DRONE-SEND: Message ID GLOBAL_POSITION_INT type position sent at 1748099535.753277
2025-05-24 17:12:15,759 - GS-RECV: Message ID ATTITUDE type attitude received at 1748099535.759178
2025-05-24 17:12:15,759 - GS-RECV: Message ID GLOBAL_POSITION_INT type position received at 1748099535.759285
2025-05-24 17:12:16,504 - DRONE-SEND: Message ID ATTITUDE type attitude sent at 1748099536.504392
2025-05-24 17:12:16,504 - DRONE-SEND: Message ID GLOBAL_POSITION_INT type position sent at 1748099536.504568
2025-05-24 17:12:16,516 - GS-RECV: Message ID ATTITUDE type attitude received at 1748099536.516982
2025-05-24 17:12:16,517 - GS-RECV: Message ID GLOBAL_POSITION_INT type position received at 1748099536.517085
2025-05-24 17:12:17,251 - DRONE-SEND: Message ID ATTITUDE type attitude sent at 1748099537.251323
2025-05-24 17:12:17,251 - DRONE-SEND: Message ID GLOBAL_POSITION_INT type position sent at 1748099537.251560
2025-05-24 17:12:17,257 - GS-RECV: Message ID ATTITUDE type attitude received at 1748099537.257507
2025-05-24 17:12:17,257 - GS-RECV: Message ID GLOBAL_POSITION_INT type position received at 1748099537.257608
2025-05-24 17:12:17,754 - DRONE-SEND: Message ID ATTITUDE type attitude sent at 1748099537.753993
2025-05-24 17:12:17,754 - DRONE-SEND: Message ID GLOBAL_POSITION_INT type position sent at 1748099537.754207
2025-05-24 17:12:17,760 - GS-RECV: Message ID ATTITUDE type attitude received at 1748099537.760191
2025-05-24 17:12:17,785 - GS-RECV: Message ID GLOBAL_POSITION_INT type position received at 1748099537.785539
2025-05-24 17:12:18,502 - DRONE-SEND: Message ID ATTITUDE type attitude sent at 1748099538.502857
2025-05-24 17:12:18,503 - DRONE-SEND: Message ID GLOBAL_POSITION_INT type position sent at 1748099538.503051
2025-05-24 17:12:18,519 - GS-RECV: Message ID ATTITUDE type attitude received at 1748099538.519329
2025-05-24 17:12:18,540 - GS-RECV: Message ID GLOBAL_POSITION_INT type position received at 1748099538.540241
2025-05-24 17:12:19,004 - DRONE-SEND: Message ID ATTITUDE type attitude sent at 1748099539.004438
2025-05-24 17:12:19,004 - DRONE-SEND: Message ID GLOBAL_POSITION_INT type position sent at 1748099539.004715
2025-05-24 17:12:19,010 - GS-RECV: Message ID ATTITUDE type attitude received at 1748099539.010130
2025-05-24 17:12:19,015 - GS-RECV: Message ID GLOBAL_POSITION_INT type position received at 1748099539.015301
2025-05-24 17:12:19,755 - DRONE-SEND: Message ID ATTITUDE type attitude sent at 1748099539.754986
2025-05-24 17:12:19,755 - DRONE-SEND: Message ID GLOBAL_POSITION_INT type position sent at 1748099539.755239
2025-05-24 17:12:19,766 - GS-RECV: Message ID ATTITUDE type attitude received at 1748099539.766316
2025-05-24 17:12:19,781 - GS-RECV: Message ID GLOBAL_POSITION_INT type position received at 1748099539.781593
2025-05-24 17:12:20,500 - DRONE-SEND: Message ID ATTITUDE type attitude sent at 1748099540.500582
2025-05-24 17:12:20,500 - DRONE-SEND: Message ID GLOBAL_POSITION_INT type position sent at 1748099540.500802
2025-05-24 17:12:20,511 - GS-RECV: Message ID ATTITUDE type attitude received at 1748099540.511861
2025-05-24 17:12:20,511 - GS-RECV: Message ID GLOBAL_POSITION_INT type position received at 1748099540.511982
2025-05-24 17:12:21,002 - DRONE-SEND: Message ID ATTITUDE type attitude sent at 1748099541.002942
2025-05-24 17:12:21,003 - DRONE-SEND: Message ID GLOBAL_POSITION_INT type position sent at 1748099541.003203
2025-05-24 17:12:21,018 - GS-RECV: Message ID ATTITUDE type attitude received at 1748099541.018819
2025-05-24 17:12:21,039 - GS-RECV: Message ID GLOBAL_POSITION_INT type position received at 1748099541.039080
2025-05-24 17:12:25,336 - DRONE-SEND: Message ID ATTITUDE type attitude sent at 1748099545.336720
2025-05-24 17:12:25,336 - DRONE-SEND: Message ID GLOBAL_POSITION_INT type position sent at 1748099545.336968
2025-05-24 17:12:25,348 - GS-RECV: Message ID ATTITUDE type attitude received at 1748099545.348122
2025-05-24 17:12:25,368 - GS-RECV: Message ID GLOBAL_POSITION_INT type position received at 1748099545.368467
2025-05-24 17:12:25,838 - DRONE-SEND: Message ID ATTITUDE type attitude sent at 1748099545.838051
2025-05-24 17:12:25,838 - DRONE-SEND: Message ID GLOBAL_POSITION_INT type position sent at 1748099545.838268
2025-05-24 17:12:25,849 - GS-RECV: Message ID ATTITUDE type attitude received at 1748099545.849215
2025-05-24 17:12:25,869 - GS-RECV: Message ID GLOBAL_POSITION_INT type position received at 1748099545.869637
2025-05-24 17:12:26,586 - DRONE-SEND: Message ID ATTITUDE type attitude sent at 1748099546.586894
2025-05-24 17:12:26,587 - DRONE-SEND: Message ID GLOBAL_POSITION_INT type position sent at 1748099546.587067
2025-05-24 17:12:26,598 - GS-RECV: Message ID ATTITUDE type attitude received at 1748099546.598002
2025-05-24 17:12:26,603 - GS-RECV: Message ID GLOBAL_POSITION_INT type position received at 1748099546.603164
2025-05-24 17:12:27,334 - DRONE-SEND: Message ID ATTITUDE type attitude sent at 1748099547.334177
2025-05-24 17:12:27,334 - DRONE-SEND: Message ID GLOBAL_POSITION_INT type position sent at 1748099547.334443
2025-05-24 17:12:27,345 - GS-RECV: Message ID ATTITUDE type attitude received at 1748099547.345564
2025-05-24 17:12:27,345 - GS-RECV: Message ID GLOBAL_POSITION_INT type position received at 1748099547.345664
2025-05-24 17:12:27,836 - DRONE-SEND: Message ID ATTITUDE type attitude sent at 1748099547.836538
2025-05-24 17:12:27,836 - DRONE-SEND: Message ID GLOBAL_POSITION_INT type position sent at 1748099547.836775
2025-05-24 17:12:27,842 - GS-RECV: Message ID ATTITUDE type attitude received at 1748099547.842668
2025-05-24 17:12:27,842 - GS-RECV: Message ID GLOBAL_POSITION_INT type position received at 1748099547.842778
2025-05-24 17:12:28,337 - DRONE-SEND: Message ID ATTITUDE type attitude sent at 1748099548.337892
2025-05-24 17:12:28,338 - DRONE-SEND: Message ID GLOBAL_POSITION_INT type position sent at 1748099548.338147
2025-05-24 17:12:28,348 - GS-RECV: Message ID ATTITUDE type attitude received at 1748099548.348371
2025-05-24 17:12:28,358 - GS-RECV: Message ID GLOBAL_POSITION_INT type position received at 1748099548.358701
2025-05-24 17:12:29,085 - DRONE-SEND: Message ID ATTITUDE type attitude sent at 1748099549.085251
2025-05-24 17:12:29,085 - DRONE-SEND: Message ID GLOBAL_POSITION_INT type position sent at 1748099549.085476
2025-05-24 17:12:29,096 - GS-RECV: Message ID ATTITUDE type attitude received at 1748099549.096457
2025-05-24 17:12:29,116 - GS-RECV: Message ID GLOBAL_POSITION_INT type position received at 1748099549.116879
2025-05-24 17:12:29,587 - DRONE-SEND: Message ID ATTITUDE type attitude sent at 1748099549.587612
2025-05-24 17:12:29,587 - DRONE-SEND: Message ID GLOBAL_POSITION_INT type position sent at 1748099549.587831
2025-05-24 17:12:29,598 - GS-RECV: Message ID ATTITUDE type attitude received at 1748099549.598539
2025-05-24 17:12:29,619 - GS-RECV: Message ID GLOBAL_POSITION_INT type position received at 1748099549.619006
2025-05-24 17:12:30,334 - DRONE-SEND: Message ID ATTITUDE type attitude sent at 1748099550.334779
2025-05-24 17:12:30,334 - DRONE-SEND: Message ID GLOBAL_POSITION_INT type position sent at 1748099550.334960
2025-05-24 17:12:30,345 - GS-RECV: Message ID ATTITUDE type attitude received at 1748099550.345612
2025-05-24 17:12:30,360 - GS-RECV: Message ID GLOBAL_POSITION_INT type position received at 1748099550.360899
2025-05-24 17:12:30,837 - DRONE-SEND: Message ID ATTITUDE type attitude sent at 1748099550.837104
2025-05-24 17:12:30,837 - DRONE-SEND: Message ID GLOBAL_POSITION_INT type position sent at 1748099550.837273
2025-05-24 17:12:30,853 - GS-RECV: Message ID ATTITUDE type attitude received at 1748099550.853207
2025-05-24 17:12:30,873 - GS-RECV: Message ID GLOBAL_POSITION_INT type position received at 1748099550.873537
2025-05-24 17:12:31,585 - DRONE-SEND: Message ID ATTITUDE type attitude sent at 1748099551.585158
2025-05-24 17:12:31,585 - DRONE-SEND: Message ID GLOBAL_POSITION_INT type position sent at 1748099551.585371
2025-05-24 17:12:31,596 - GS-RECV: Message ID ATTITUDE type attitude received at 1748099551.596163
2025-05-24 17:12:31,596 - GS-RECV: Message ID GLOBAL_POSITION_INT type position received at 1748099551.596296
2025-05-24 17:12:32,086 - DRONE-SEND: Message ID ATTITUDE type attitude sent at 1748099552.086700
2025-05-24 17:12:32,086 - DRONE-SEND: Message ID GLOBAL_POSITION_INT type position sent at 1748099552.086943
2025-05-24 17:12:32,097 - GS-RECV: Message ID ATTITUDE type attitude received at 1748099552.097921
2025-05-24 17:12:32,116 - GS-RECV: Message ID GLOBAL_POSITION_INT type position received at 1748099552.116758
2025-05-24 17:12:32,838 - DRONE-SEND: Message ID ATTITUDE type attitude sent at 1748099552.838013
2025-05-24 17:12:32,838 - DRONE-SEND: Message ID GLOBAL_POSITION_INT type position sent at 1748099552.838181
2025-05-24 17:12:32,854 - GS-RECV: Message ID ATTITUDE type attitude received at 1748099552.854145
2025-05-24 17:12:32,869 - GS-RECV: Message ID GLOBAL_POSITION_INT type position received at 1748099552.869401
2025-05-24 17:12:33,586 - DRONE-SEND: Message ID ATTITUDE type attitude sent at 1748099553.586071
2025-05-24 17:12:33,586 - DRONE-SEND: Message ID GLOBAL_POSITION_INT type position sent at 1748099553.586265
2025-05-24 17:12:33,603 - GS-RECV: Message ID ATTITUDE type attitude received at 1748099553.603434
2025-05-24 17:12:33,613 - GS-RECV: Message ID GLOBAL_POSITION_INT type position received at 1748099553.613639
2025-05-24 17:12:34,088 - DRONE-SEND: Message ID ATTITUDE type attitude sent at 1748099554.088465
2025-05-24 17:12:34,088 - DRONE-SEND: Message ID GLOBAL_POSITION_INT type position sent at 1748099554.088675
2025-05-24 17:12:34,094 - GS-RECV: Message ID ATTITUDE type attitude received at 1748099554.094580
2025-05-24 17:12:34,104 - GS-RECV: Message ID GLOBAL_POSITION_INT type position received at 1748099554.104935
2025-05-24 17:12:34,836 - DRONE-SEND: Message ID ATTITUDE type attitude sent at 1748099554.836561
2025-05-24 17:12:34,836 - DRONE-SEND: Message ID GLOBAL_POSITION_INT type position sent at 1748099554.836846
2025-05-24 17:12:34,847 - GS-RECV: Message ID ATTITUDE type attitude received at 1748099554.847774
2025-05-24 17:12:34,868 - GS-RECV: Message ID GLOBAL_POSITION_INT type position received at 1748099554.868031
2025-05-24 17:12:35,338 - DRONE-SEND: Message ID ATTITUDE type attitude sent at 1748099555.337986
2025-05-24 17:12:35,338 - DRONE-SEND: Message ID GLOBAL_POSITION_INT type position sent at 1748099555.338190
2025-05-24 17:12:35,349 - GS-RECV: Message ID ATTITUDE type attitude received at 1748099555.349028
2025-05-24 17:12:35,374 - GS-RECV: Message ID GLOBAL_POSITION_INT type position received at 1748099555.374373
2025-05-24 17:12:36,084 - DRONE-SEND: Message ID ATTITUDE type attitude sent at 1748099556.084461
2025-05-24 17:12:36,084 - DRONE-SEND: Message ID GLOBAL_POSITION_INT type position sent at 1748099556.084728
2025-05-24 17:12:36,095 - GS-RECV: Message ID ATTITUDE type attitude received at 1748099556.095847
2025-05-24 17:12:36,111 - GS-RECV: Message ID GLOBAL_POSITION_INT type position received at 1748099556.111129
2025-05-24 17:12:36,587 - DRONE-SEND: Message ID ATTITUDE type attitude sent at 1748099556.587615
2025-05-24 17:12:36,587 - DRONE-SEND: Message ID GLOBAL_POSITION_INT type position sent at 1748099556.587833
2025-05-24 17:12:36,598 - GS-RECV: Message ID ATTITUDE type attitude received at 1748099556.598808
2025-05-24 17:12:36,603 - GS-RECV: Message ID GLOBAL_POSITION_INT type position received at 1748099556.603949
2025-05-24 17:12:37,337 - DRONE-SEND: Message ID ATTITUDE type attitude sent at 1748099557.337253
2025-05-24 17:12:37,337 - DRONE-SEND: Message ID GLOBAL_POSITION_INT type position sent at 1748099557.337453
2025-05-24 17:12:37,348 - GS-RECV: Message ID ATTITUDE type attitude received at 1748099557.348392
2025-05-24 17:12:37,368 - GS-RECV: Message ID GLOBAL_POSITION_INT type position received at 1748099557.368682
2025-05-24 17:12:38,084 - DRONE-SEND: Message ID ATTITUDE type attitude sent at 1748099558.084644
2025-05-24 17:12:38,084 - DRONE-SEND: Message ID GLOBAL_POSITION_INT type position sent at 1748099558.084832
2025-05-24 17:12:38,090 - GS-RECV: Message ID ATTITUDE type attitude received at 1748099558.090671
2025-05-24 17:12:38,095 - GS-RECV: Message ID GLOBAL_POSITION_INT type position received at 1748099558.095873
2025-05-24 17:12:38,586 - DRONE-SEND: Message ID ATTITUDE type attitude sent at 1748099558.586003
2025-05-24 17:12:38,586 - DRONE-SEND: Message ID GLOBAL_POSITION_INT type position sent at 1748099558.586183
2025-05-24 17:12:38,596 - GS-RECV: Message ID ATTITUDE type attitude received at 1748099558.596583
2025-05-24 17:12:38,621 - GS-RECV: Message ID GLOBAL_POSITION_INT type position received at 1748099558.621964
2025-05-24 17:12:39,333 - DRONE-SEND: Message ID ATTITUDE type attitude sent at 1748099559.333257
2025-05-24 17:12:39,333 - DRONE-SEND: Message ID GLOBAL_POSITION_INT type position sent at 1748099559.333470
2025-05-24 17:12:39,346 - GS-RECV: Message ID ATTITUDE type attitude received at 1748099559.346118
2025-05-24 17:12:39,366 - GS-RECV: Message ID GLOBAL_POSITION_INT type position received at 1748099559.366881
2025-05-24 17:12:39,836 - DRONE-SEND: Message ID ATTITUDE type attitude sent at 1748099559.836517
2025-05-24 17:12:39,836 - DRONE-SEND: Message ID GLOBAL_POSITION_INT type position sent at 1748099559.836758
2025-05-24 17:12:39,853 - GS-RECV: Message ID ATTITUDE type attitude received at 1748099559.853058
2025-05-24 17:12:39,853 - GS-RECV: Message ID GLOBAL_POSITION_INT type position received at 1748099559.853164
2025-05-24 17:12:40,337 - DRONE-SEND: Message ID ATTITUDE type attitude sent at 1748099560.337877
2025-05-24 17:12:40,338 - DRONE-SEND: Message ID GLOBAL_POSITION_INT type position sent at 1748099560.338063
2025-05-24 17:12:40,353 - GS-RECV: Message ID ATTITUDE type attitude received at 1748099560.353475
2025-05-24 17:12:40,353 - GS-RECV: Message ID GLOBAL_POSITION_INT type position received at 1748099560.353577
2025-05-24 17:12:41,084 - DRONE-SEND: Message ID ATTITUDE type attitude sent at 1748099561.084362
2025-05-24 17:12:41,084 - DRONE-SEND: Message ID GLOBAL_POSITION_INT type position sent at 1748099561.084577
2025-05-24 17:12:41,095 - GS-RECV: Message ID ATTITUDE type attitude received at 1748099561.095583
2025-05-24 17:12:41,120 - GS-RECV: Message ID GLOBAL_POSITION_INT type position received at 1748099561.120961
2025-05-24 17:12:41,587 - DRONE-SEND: Message ID ATTITUDE type attitude sent at 1748099561.587524
2025-05-24 17:12:41,587 - DRONE-SEND: Message ID GLOBAL_POSITION_INT type position sent at 1748099561.587742
2025-05-24 17:12:41,598 - GS-RECV: Message ID ATTITUDE type attitude received at 1748099561.598705
2025-05-24 17:12:41,608 - GS-RECV: Message ID GLOBAL_POSITION_INT type position received at 1748099561.608963
2025-05-24 17:12:42,336 - DRONE-SEND: Message ID ATTITUDE type attitude sent at 1748099562.336360
2025-05-24 17:12:42,336 - DRONE-SEND: Message ID GLOBAL_POSITION_INT type position sent at 1748099562.336564
2025-05-24 17:12:42,347 - GS-RECV: Message ID ATTITUDE type attitude received at 1748099562.347664
2025-05-24 17:12:42,362 - GS-RECV: Message ID GLOBAL_POSITION_INT type position received at 1748099562.362911
2025-05-24 17:12:43,088 - DRONE-SEND: Message ID ATTITUDE type attitude sent at 1748099563.088630
2025-05-24 17:12:43,088 - DRONE-SEND: Message ID GLOBAL_POSITION_INT type position sent at 1748099563.088843
2025-05-24 17:12:43,104 - GS-RECV: Message ID ATTITUDE type attitude received at 1748099563.104938
2025-05-24 17:12:43,115 - GS-RECV: Message ID GLOBAL_POSITION_INT type position received at 1748099563.115155
2025-05-24 17:12:43,834 - DRONE-SEND: Message ID ATTITUDE type attitude sent at 1748099563.834241
2025-05-24 17:12:43,834 - DRONE-SEND: Message ID GLOBAL_POSITION_INT type position sent at 1748099563.834426
2025-05-24 17:12:43,845 - GS-RECV: Message ID ATTITUDE type attitude received at 1748099563.845530
2025-05-24 17:12:43,865 - GS-RECV: Message ID GLOBAL_POSITION_INT type position received at 1748099563.865789
2025-05-24 17:12:44,336 - DRONE-SEND: Message ID ATTITUDE type attitude sent at 1748099564.336541
2025-05-24 17:12:44,336 - DRONE-SEND: Message ID GLOBAL_POSITION_INT type position sent at 1748099564.336760
2025-05-24 17:12:44,343 - GS-RECV: Message ID ATTITUDE type attitude received at 1748099564.343012
2025-05-24 17:12:44,353 - GS-RECV: Message ID GLOBAL_POSITION_INT type position received at 1748099564.353196
2025-05-24 17:12:45,086 - DRONE-SEND: Message ID ATTITUDE type attitude sent at 1748099565.086300
2025-05-24 17:12:45,086 - DRONE-SEND: Message ID GLOBAL_POSITION_INT type position sent at 1748099565.086551
2025-05-24 17:12:45,096 - GS-RECV: Message ID ATTITUDE type attitude received at 1748099565.096883
2025-05-24 17:12:45,117 - GS-RECV: Message ID GLOBAL_POSITION_INT type position received at 1748099565.117205
2025-05-24 17:12:45,835 - DRONE-SEND: Message ID ATTITUDE type attitude sent at 1748099565.835149
2025-05-24 17:12:45,835 - DRONE-SEND: Message ID GLOBAL_POSITION_INT type position sent at 1748099565.835313
2025-05-24 17:12:45,856 - GS-RECV: Message ID ATTITUDE type attitude received at 1748099565.856343
2025-05-24 17:12:45,876 - GS-RECV: Message ID GLOBAL_POSITION_INT type position received at 1748099565.876653
2025-05-24 17:12:46,338 - DRONE-SEND: Message ID ATTITUDE type attitude sent at 1748099566.338400
2025-05-24 17:12:46,338 - DRONE-SEND: Message ID GLOBAL_POSITION_INT type position sent at 1748099566.338632
2025-05-24 17:12:46,349 - GS-RECV: Message ID ATTITUDE type attitude received at 1748099566.349575
2025-05-24 17:12:46,370 - GS-RECV: Message ID GLOBAL_POSITION_INT type position received at 1748099566.369993
2025-05-24 17:12:47,085 - DRONE-SEND: Message ID ATTITUDE type attitude sent at 1748099567.085543
2025-05-24 17:12:47,085 - DRONE-SEND: Message ID GLOBAL_POSITION_INT type position sent at 1748099567.085754
2025-05-24 17:12:47,096 - GS-RECV: Message ID ATTITUDE type attitude received at 1748099567.096953
2025-05-24 17:12:47,107 - GS-RECV: Message ID GLOBAL_POSITION_INT type position received at 1748099567.107184
2025-05-24 17:12:47,837 - DRONE-SEND: Message ID ATTITUDE type attitude sent at 1748099567.837876
2025-05-24 17:12:47,838 - DRONE-SEND: Message ID GLOBAL_POSITION_INT type position sent at 1748099567.838135
2025-05-24 17:12:47,843 - GS-RECV: Message ID ATTITUDE type attitude received at 1748099567.843831
2025-05-24 17:12:47,843 - GS-RECV: Message ID GLOBAL_POSITION_INT type position received at 1748099567.843953
2025-05-24 17:12:48,585 - DRONE-SEND: Message ID ATTITUDE type attitude sent at 1748099568.585938
2025-05-24 17:12:48,586 - DRONE-SEND: Message ID GLOBAL_POSITION_INT type position sent at 1748099568.586119
2025-05-24 17:12:48,602 - GS-RECV: Message ID ATTITUDE type attitude received at 1748099568.602088
2025-05-24 17:12:48,602 - GS-RECV: Message ID GLOBAL_POSITION_INT type position received at 1748099568.602244
2025-05-24 17:12:49,087 - DRONE-SEND: Message ID ATTITUDE type attitude sent at 1748099569.087384
2025-05-24 17:12:49,087 - DRONE-SEND: Message ID GLOBAL_POSITION_INT type position sent at 1748099569.087564
2025-05-24 17:12:49,098 - GS-RECV: Message ID ATTITUDE type attitude received at 1748099569.098032
2025-05-24 17:12:49,118 - GS-RECV: Message ID GLOBAL_POSITION_INT type position received at 1748099569.118415
2025-05-24 17:12:49,588 - DRONE-SEND: Message ID ATTITUDE type attitude sent at 1748099569.588838
2025-05-24 17:12:49,589 - DRONE-SEND: Message ID GLOBAL_POSITION_INT type position sent at 1748099569.589030
2025-05-24 17:12:49,599 - GS-RECV: Message ID ATTITUDE type attitude received at 1748099569.599369
2025-05-24 17:12:49,625 - GS-RECV: Message ID GLOBAL_POSITION_INT type position received at 1748099569.625045
2025-05-24 17:12:50,333 - DRONE-SEND: Message ID ATTITUDE type attitude sent at 1748099570.333764
2025-05-24 17:12:50,333 - DRONE-SEND: Message ID GLOBAL_POSITION_INT type position sent at 1748099570.333980
2025-05-24 17:12:50,339 - GS-RECV: Message ID ATTITUDE type attitude received at 1748099570.339951
2025-05-24 17:12:50,340 - GS-RECV: Message ID GLOBAL_POSITION_INT type position received at 1748099570.340052
2025-05-24 17:12:50,835 - DRONE-SEND: Message ID ATTITUDE type attitude sent at 1748099570.835172
2025-05-24 17:12:50,835 - DRONE-SEND: Message ID GLOBAL_POSITION_INT type position sent at 1748099570.835393
2025-05-24 17:12:50,851 - GS-RECV: Message ID ATTITUDE type attitude received at 1748099570.851921
2025-05-24 17:12:50,862 - GS-RECV: Message ID GLOBAL_POSITION_INT type position received at 1748099570.862188
2025-05-24 17:12:51,336 - DRONE-SEND: Message ID ATTITUDE type attitude sent at 1748099571.336669
2025-05-24 17:12:51,336 - DRONE-SEND: Message ID GLOBAL_POSITION_INT type position sent at 1748099571.336923
2025-05-24 17:12:51,348 - GS-RECV: Message ID ATTITUDE type attitude received at 1748099571.348012
2025-05-24 17:12:51,353 - GS-RECV: Message ID GLOBAL_POSITION_INT type position received at 1748099571.353222
2025-05-24 17:12:51,838 - DRONE-SEND: Message ID ATTITUDE type attitude sent at 1748099571.838166
2025-05-24 17:12:51,838 - DRONE-SEND: Message ID GLOBAL_POSITION_INT type position sent at 1748099571.838408
2025-05-24 17:12:51,849 - GS-RECV: Message ID ATTITUDE type attitude received at 1748099571.849439
2025-05-24 17:12:51,849 - GS-RECV: Message ID GLOBAL_POSITION_INT type position received at 1748099571.849562
2025-05-24 17:12:52,583 - DRONE-SEND: Message ID ATTITUDE type attitude sent at 1748099572.583655
2025-05-24 17:12:52,583 - DRONE-SEND: Message ID GLOBAL_POSITION_INT type position sent at 1748099572.583853
2025-05-24 17:12:52,594 - GS-RECV: Message ID ATTITUDE type attitude received at 1748099572.594797
2025-05-24 17:12:52,610 - GS-RECV: Message ID GLOBAL_POSITION_INT type position received at 1748099572.610124
2025-05-24 17:12:53,085 - DRONE-SEND: Message ID ATTITUDE type attitude sent at 1748099573.085105
2025-05-24 17:12:53,085 - DRONE-SEND: Message ID GLOBAL_POSITION_INT type position sent at 1748099573.085269
2025-05-24 17:12:53,101 - GS-RECV: Message ID ATTITUDE type attitude received at 1748099573.101336
2025-05-24 17:12:53,121 - GS-RECV: Message ID GLOBAL_POSITION_INT type position received at 1748099573.121634
2025-05-24 17:12:53,587 - DRONE-SEND: Message ID ATTITUDE type attitude sent at 1748099573.587530
2025-05-24 17:12:53,587 - DRONE-SEND: Message ID GLOBAL_POSITION_INT type position sent at 1748099573.587733
2025-05-24 17:12:53,598 - GS-RECV: Message ID ATTITUDE type attitude received at 1748099573.598637
2025-05-24 17:12:53,613 - GS-RECV: Message ID GLOBAL_POSITION_INT type position received at 1748099573.613977
2025-05-24 17:12:54,337 - DRONE-SEND: Message ID ATTITUDE type attitude sent at 1748099574.337209
2025-05-24 17:12:54,337 - DRONE-SEND: Message ID GLOBAL_POSITION_INT type position sent at 1748099574.337420
2025-05-24 17:12:54,348 - GS-RECV: Message ID ATTITUDE type attitude received at 1748099574.348379
2025-05-24 17:12:54,364 - GS-RECV: Message ID GLOBAL_POSITION_INT type position received at 1748099574.363997
2025-05-24 17:12:54,839 - DRONE-SEND: Message ID ATTITUDE type attitude sent at 1748099574.839500
2025-05-24 17:12:54,839 - DRONE-SEND: Message ID GLOBAL_POSITION_INT type position sent at 1748099574.839661
2025-05-24 17:12:54,855 - GS-RECV: Message ID ATTITUDE type attitude received at 1748099574.855541
2025-05-24 17:12:54,875 - GS-RECV: Message ID GLOBAL_POSITION_INT type position received at 1748099574.875876
2025-05-24 17:12:55,585 - DRONE-SEND: Message ID ATTITUDE type attitude sent at 1748099575.585918
2025-05-24 17:12:55,586 - DRONE-SEND: Message ID GLOBAL_POSITION_INT type position sent at 1748099575.586097
2025-05-24 17:12:55,601 - GS-RECV: Message ID ATTITUDE type attitude received at 1748099575.601522
2025-05-24 17:12:55,601 - GS-RECV: Message ID GLOBAL_POSITION_INT type position received at 1748099575.601706
2025-05-24 17:12:56,087 - DRONE-SEND: Message ID ATTITUDE type attitude sent at 1748099576.087460
2025-05-24 17:12:56,087 - DRONE-SEND: Message ID GLOBAL_POSITION_INT type position sent at 1748099576.087708
2025-05-24 17:12:56,098 - GS-RECV: Message ID ATTITUDE type attitude received at 1748099576.098706
2025-05-24 17:12:56,124 - GS-RECV: Message ID GLOBAL_POSITION_INT type position received at 1748099576.124043
2025-05-24 17:12:56,837 - DRONE-SEND: Message ID ATTITUDE type attitude sent at 1748099576.837146
2025-05-24 17:12:56,837 - DRONE-SEND: Message ID GLOBAL_POSITION_INT type position sent at 1748099576.837337
2025-05-24 17:12:56,843 - GS-RECV: Message ID ATTITUDE type attitude received at 1748099576.843117
2025-05-24 17:12:56,843 - GS-RECV: Message ID GLOBAL_POSITION_INT type position received at 1748099576.843208
2025-05-24 17:12:57,337 - DRONE-SEND: Message ID ATTITUDE type attitude sent at 1748099577.337854
2025-05-24 17:12:57,338 - DRONE-SEND: Message ID GLOBAL_POSITION_INT type position sent at 1748099577.338084
2025-05-24 17:12:57,349 - GS-RECV: Message ID ATTITUDE type attitude received at 1748099577.349077
2025-05-24 17:12:57,364 - GS-RECV: Message ID GLOBAL_POSITION_INT type position received at 1748099577.364450
2025-05-24 17:13:01,172 - DRONE-SEND: Message ID ATTITUDE type attitude sent at 1748099581.172863
2025-05-24 17:13:01,173 - DRONE-SEND: Message ID GLOBAL_POSITION_INT type position sent at 1748099581.173048
2025-05-24 17:13:01,178 - GS-RECV: Message ID ATTITUDE type attitude received at 1748099581.178471
2025-05-24 17:13:01,193 - GS-RECV: Message ID GLOBAL_POSITION_INT type position received at 1748099581.193904
2025-05-24 17:13:01,921 - DRONE-SEND: Message ID ATTITUDE type attitude sent at 1748099581.921679
2025-05-24 17:13:01,921 - DRONE-SEND: Message ID GLOBAL_POSITION_INT type position sent at 1748099581.921846
2025-05-24 17:13:01,942 - GS-RECV: Message ID ATTITUDE type attitude received at 1748099581.942827
2025-05-24 17:13:01,948 - GS-RECV: Message ID GLOBAL_POSITION_INT type position received at 1748099581.948121
2025-05-24 17:13:02,672 - DRONE-SEND: Message ID ATTITUDE type attitude sent at 1748099582.672294
2025-05-24 17:13:02,672 - DRONE-SEND: Message ID GLOBAL_POSITION_INT type position sent at 1748099582.672523
2025-05-24 17:13:02,683 - GS-RECV: Message ID ATTITUDE type attitude received at 1748099582.683624
2025-05-24 17:13:02,688 - GS-RECV: Message ID GLOBAL_POSITION_INT type position received at 1748099582.688806
2025-05-24 17:13:03,420 - DRONE-SEND: Message ID ATTITUDE type attitude sent at 1748099583.420272
2025-05-24 17:13:03,420 - DRONE-SEND: Message ID GLOBAL_POSITION_INT type position sent at 1748099583.420454
2025-05-24 17:13:03,431 - GS-RECV: Message ID ATTITUDE type attitude received at 1748099583.431424
2025-05-24 17:13:03,451 - GS-RECV: Message ID GLOBAL_POSITION_INT type position received at 1748099583.451710
2025-05-24 17:13:03,923 - DRONE-SEND: Message ID ATTITUDE type attitude sent at 1748099583.923538
2025-05-24 17:13:03,923 - DRONE-SEND: Message ID GLOBAL_POSITION_INT type position sent at 1748099583.923789
2025-05-24 17:13:03,939 - GS-RECV: Message ID ATTITUDE type attitude received at 1748099583.939359
2025-05-24 17:13:03,958 - GS-RECV: Message ID GLOBAL_POSITION_INT type position received at 1748099583.958308
2025-05-24 17:13:04,670 - DRONE-SEND: Message ID ATTITUDE type attitude sent at 1748099584.670700
2025-05-24 17:13:04,671 - DRONE-SEND: Message ID GLOBAL_POSITION_INT type position sent at 1748099584.671123
2025-05-24 17:13:04,692 - GS-RECV: Message ID ATTITUDE type attitude received at 1748099584.692466
2025-05-24 17:13:04,697 - GS-RECV: Message ID GLOBAL_POSITION_INT type position received at 1748099584.697649
2025-05-24 17:13:05,421 - DRONE-SEND: Message ID ATTITUDE type attitude sent at 1748099585.421315
2025-05-24 17:13:05,421 - DRONE-SEND: Message ID GLOBAL_POSITION_INT type position sent at 1748099585.421556
2025-05-24 17:13:05,437 - GS-RECV: Message ID ATTITUDE type attitude received at 1748099585.437691
2025-05-24 17:13:05,458 - GS-RECV: Message ID GLOBAL_POSITION_INT type position received at 1748099585.458084
2025-05-24 17:13:05,923 - DRONE-SEND: Message ID ATTITUDE type attitude sent at 1748099585.923588
2025-05-24 17:13:05,923 - DRONE-SEND: Message ID GLOBAL_POSITION_INT type position sent at 1748099585.923840
2025-05-24 17:13:05,935 - GS-RECV: Message ID ATTITUDE type attitude received at 1748099585.935104
2025-05-24 17:13:05,961 - GS-RECV: Message ID GLOBAL_POSITION_INT type position received at 1748099585.961017
2025-05-24 17:13:06,670 - DRONE-SEND: Message ID ATTITUDE type attitude sent at 1748099586.670017
2025-05-24 17:13:06,670 - DRONE-SEND: Message ID GLOBAL_POSITION_INT type position sent at 1748099586.670255
2025-05-24 17:13:06,691 - GS-RECV: Message ID ATTITUDE type attitude received at 1748099586.691449
2025-05-24 17:13:06,706 - GS-RECV: Message ID GLOBAL_POSITION_INT type position received at 1748099586.706730
2025-05-24 17:13:07,171 - DRONE-SEND: Message ID ATTITUDE type attitude sent at 1748099587.171450
2025-05-24 17:13:07,171 - DRONE-SEND: Message ID GLOBAL_POSITION_INT type position sent at 1748099587.171628
2025-05-24 17:13:07,176 - GS-RECV: Message ID ATTITUDE type attitude received at 1748099587.176915
2025-05-24 17:13:07,177 - GS-RECV: Message ID GLOBAL_POSITION_INT type position received at 1748099587.177031
2025-05-24 17:13:07,291 - GS-SEND: Message ID {'mode': 'GUIDED', 'takeoff_alt': 10} type mode_GUIDED sent at 1748099587.291532
2025-05-24 17:13:07,292 - DRONE-RECV: Message ID {'mode': 'GUIDED', 'takeoff_alt': 10} type mode_GUIDED received at 1748099587.292186
2025-05-24 17:13:07,919 - DRONE-SEND: Message ID ATTITUDE type attitude sent at 1748099587.919567
2025-05-24 17:13:07,919 - DRONE-SEND: Message ID GLOBAL_POSITION_INT type position sent at 1748099587.919732
2025-05-24 17:13:08,423 - DRONE-SEND: Message ID ATTITUDE type attitude sent at 1748099588.423525
2025-05-24 17:13:08,423 - DRONE-SEND: Message ID GLOBAL_POSITION_INT type position sent at 1748099588.423692
2025-05-24 17:13:09,170 - DRONE-SEND: Message ID ATTITUDE type attitude sent at 1748099589.170874
2025-05-24 17:13:09,171 - DRONE-SEND: Message ID GLOBAL_POSITION_INT type position sent at 1748099589.171082
2025-05-24 17:13:09,292 - DRONE-EXEC: Message ID {'mode': 'GUIDED', 'takeoff_alt': 10} type mode_GUIDED executed - Transit: 0.00ms, Processing: 2000.41ms, Total: 2000.41ms, TLS: True
2025-05-24 17:13:09,303 - GS-RECV: Message ID ATTITUDE type attitude received at 1748099589.303846
2025-05-24 17:13:09,319 - GS-RECV: Message ID GLOBAL_POSITION_INT type position received at 1748099589.319121
2025-05-24 17:13:09,339 - GS-RECV: Message ID ATTITUDE type attitude received at 1748099589.339341
2025-05-24 17:13:09,354 - GS-RECV: Message ID GLOBAL_POSITION_INT type position received at 1748099589.354545
2025-05-24 17:13:09,369 - GS-RECV: Message ID ATTITUDE type attitude received at 1748099589.369389
2025-05-24 17:13:09,369 - GS-RECV: Message ID GLOBAL_POSITION_INT type position received at 1748099589.369482
2025-05-24 17:13:09,672 - DRONE-SEND: Message ID ATTITUDE type attitude sent at 1748099589.672259
2025-05-24 17:13:09,672 - DRONE-SEND: Message ID GLOBAL_POSITION_INT type position sent at 1748099589.672474
2025-05-24 17:13:09,683 - GS-RECV: Message ID ATTITUDE type attitude received at 1748099589.683715
2025-05-24 17:13:09,688 - GS-RECV: Message ID GLOBAL_POSITION_INT type position received at 1748099589.688906
2025-05-24 17:13:10,173 - DRONE-SEND: Message ID ATTITUDE type attitude sent at 1748099590.173707
2025-05-24 17:13:10,173 - DRONE-SEND: Message ID GLOBAL_POSITION_INT type position sent at 1748099590.173861
2025-05-24 17:13:10,189 - GS-RECV: Message ID ATTITUDE type attitude received at 1748099590.189753
2025-05-24 17:13:10,210 - GS-RECV: Message ID GLOBAL_POSITION_INT type position received at 1748099590.210073
2025-05-24 17:13:10,921 - DRONE-SEND: Message ID ATTITUDE type attitude sent at 1748099590.921859
2025-05-24 17:13:10,922 - DRONE-SEND: Message ID GLOBAL_POSITION_INT type position sent at 1748099590.922054
2025-05-24 17:13:10,932 - GS-RECV: Message ID ATTITUDE type attitude received at 1748099590.932611
2025-05-24 17:13:10,947 - GS-RECV: Message ID GLOBAL_POSITION_INT type position received at 1748099590.947984
2025-05-24 17:13:11,669 - DRONE-SEND: Message ID ATTITUDE type attitude sent at 1748099591.669811
2025-05-24 17:13:11,669 - DRONE-SEND: Message ID GLOBAL_POSITION_INT type position sent at 1748099591.669983
2025-05-24 17:13:11,682 - GS-RECV: Message ID ATTITUDE type attitude received at 1748099591.682916
2025-05-24 17:13:11,683 - GS-RECV: Message ID GLOBAL_POSITION_INT type position received at 1748099591.683050
2025-05-24 17:13:12,173 - DRONE-SEND: Message ID ATTITUDE type attitude sent at 1748099592.173034
2025-05-24 17:13:12,173 - DRONE-SEND: Message ID GLOBAL_POSITION_INT type position sent at 1748099592.173250
2025-05-24 17:13:12,183 - GS-RECV: Message ID ATTITUDE type attitude received at 1748099592.183775
2025-05-24 17:13:12,231 - GS-RECV: Message ID GLOBAL_POSITION_INT type position received at 1748099592.231251
2025-05-24 17:13:12,921 - DRONE-SEND: Message ID ATTITUDE type attitude sent at 1748099592.921927
2025-05-24 17:13:12,922 - DRONE-SEND: Message ID GLOBAL_POSITION_INT type position sent at 1748099592.922102
2025-05-24 17:13:12,937 - GS-RECV: Message ID ATTITUDE type attitude received at 1748099592.937684
2025-05-24 17:13:12,947 - GS-RECV: Message ID GLOBAL_POSITION_INT type position received at 1748099592.947920
2025-05-24 17:13:13,670 - DRONE-SEND: Message ID ATTITUDE type attitude sent at 1748099593.670860
2025-05-24 17:13:13,671 - DRONE-SEND: Message ID GLOBAL_POSITION_INT type position sent at 1748099593.671117
2025-05-24 17:13:13,681 - GS-RECV: Message ID ATTITUDE type attitude received at 1748099593.681635
2025-05-24 17:13:13,696 - GS-RECV: Message ID GLOBAL_POSITION_INT type position received at 1748099593.696958
2025-05-24 17:13:14,173 - DRONE-SEND: Message ID ATTITUDE type attitude sent at 1748099594.173128
2025-05-24 17:13:14,173 - DRONE-SEND: Message ID GLOBAL_POSITION_INT type position sent at 1748099594.173280
2025-05-24 17:13:14,189 - GS-RECV: Message ID ATTITUDE type attitude received at 1748099594.189283
2025-05-24 17:13:14,199 - GS-RECV: Message ID GLOBAL_POSITION_INT type position received at 1748099594.199507
2025-05-24 17:13:14,673 - DRONE-SEND: Message ID ATTITUDE type attitude sent at 1748099594.673805
2025-05-24 17:13:14,673 - DRONE-SEND: Message ID GLOBAL_POSITION_INT type position sent at 1748099594.673964
2025-05-24 17:13:14,684 - GS-RECV: Message ID ATTITUDE type attitude received at 1748099594.684912
2025-05-24 17:13:14,695 - GS-RECV: Message ID GLOBAL_POSITION_INT type position received at 1748099594.695120
2025-05-24 17:13:15,421 - DRONE-SEND: Message ID ATTITUDE type attitude sent at 1748099595.421916
2025-05-24 17:13:15,422 - DRONE-SEND: Message ID GLOBAL_POSITION_INT type position sent at 1748099595.422105
2025-05-24 17:13:15,432 - GS-RECV: Message ID ATTITUDE type attitude received at 1748099595.432607
2025-05-24 17:13:15,457 - GS-RECV: Message ID GLOBAL_POSITION_INT type position received at 1748099595.457960
2025-05-24 17:13:16,173 - DRONE-SEND: Message ID ATTITUDE type attitude sent at 1748099596.173338
2025-05-24 17:13:16,173 - DRONE-SEND: Message ID GLOBAL_POSITION_INT type position sent at 1748099596.173538
2025-05-24 17:13:16,189 - GS-RECV: Message ID ATTITUDE type attitude received at 1748099596.189392
2025-05-24 17:13:16,204 - GS-RECV: Message ID GLOBAL_POSITION_INT type position received at 1748099596.204803
2025-05-24 17:13:16,919 - DRONE-SEND: Message ID ATTITUDE type attitude sent at 1748099596.919776
2025-05-24 17:13:16,919 - DRONE-SEND: Message ID GLOBAL_POSITION_INT type position sent at 1748099596.919949
2025-05-24 17:13:16,931 - GS-RECV: Message ID ATTITUDE type attitude received at 1748099596.931288
2025-05-24 17:13:16,931 - GS-RECV: Message ID GLOBAL_POSITION_INT type position received at 1748099596.931407
2025-05-24 17:13:17,422 - DRONE-SEND: Message ID ATTITUDE type attitude sent at 1748099597.422851
2025-05-24 17:13:17,423 - DRONE-SEND: Message ID GLOBAL_POSITION_INT type position sent at 1748099597.423048
2025-05-24 17:13:17,434 - GS-RECV: Message ID ATTITUDE type attitude received at 1748099597.434388
2025-05-24 17:13:17,449 - GS-RECV: Message ID GLOBAL_POSITION_INT type position received at 1748099597.449766
2025-05-24 17:13:17,924 - DRONE-SEND: Message ID ATTITUDE type attitude sent at 1748099597.924332
2025-05-24 17:13:17,924 - DRONE-SEND: Message ID GLOBAL_POSITION_INT type position sent at 1748099597.924515
2025-05-24 17:13:17,940 - GS-RECV: Message ID ATTITUDE type attitude received at 1748099597.940600
2025-05-24 17:13:17,960 - GS-RECV: Message ID GLOBAL_POSITION_INT type position received at 1748099597.960866
2025-05-24 17:13:18,674 - DRONE-SEND: Message ID ATTITUDE type attitude sent at 1748099598.674113
2025-05-24 17:13:18,674 - DRONE-SEND: Message ID GLOBAL_POSITION_INT type position sent at 1748099598.674336
2025-05-24 17:13:18,685 - GS-RECV: Message ID ATTITUDE type attitude received at 1748099598.685510
2025-05-24 17:13:18,705 - GS-RECV: Message ID GLOBAL_POSITION_INT type position received at 1748099598.705973
2025-05-24 17:13:19,419 - DRONE-SEND: Message ID ATTITUDE type attitude sent at 1748099599.419662
2025-05-24 17:13:19,419 - DRONE-SEND: Message ID GLOBAL_POSITION_INT type position sent at 1748099599.419847
2025-05-24 17:13:19,425 - GS-RECV: Message ID ATTITUDE type attitude received at 1748099599.425714
2025-05-24 17:13:19,425 - GS-RECV: Message ID GLOBAL_POSITION_INT type position received at 1748099599.425829
2025-05-24 17:13:19,921 - DRONE-SEND: Message ID ATTITUDE type attitude sent at 1748099599.921255
2025-05-24 17:13:19,921 - DRONE-SEND: Message ID GLOBAL_POSITION_INT type position sent at 1748099599.921437
2025-05-24 17:13:19,927 - GS-RECV: Message ID ATTITUDE type attitude received at 1748099599.927150
2025-05-24 17:13:19,932 - GS-RECV: Message ID GLOBAL_POSITION_INT type position received at 1748099599.932332
2025-05-24 17:13:20,422 - DRONE-SEND: Message ID ATTITUDE type attitude sent at 1748099600.422693
2025-05-24 17:13:20,422 - DRONE-SEND: Message ID GLOBAL_POSITION_INT type position sent at 1748099600.422885
2025-05-24 17:13:20,438 - GS-RECV: Message ID ATTITUDE type attitude received at 1748099600.438358
2025-05-24 17:13:20,453 - GS-RECV: Message ID GLOBAL_POSITION_INT type position received at 1748099600.453833
2025-05-24 17:13:20,924 - DRONE-SEND: Message ID ATTITUDE type attitude sent at 1748099600.924154
2025-05-24 17:13:20,924 - DRONE-SEND: Message ID GLOBAL_POSITION_INT type position sent at 1748099600.924358
2025-05-24 17:13:20,935 - GS-RECV: Message ID ATTITUDE type attitude received at 1748099600.935603
2025-05-24 17:13:20,951 - GS-RECV: Message ID GLOBAL_POSITION_INT type position received at 1748099600.951249
2025-05-24 17:13:21,670 - DRONE-SEND: Message ID ATTITUDE type attitude sent at 1748099601.670643
2025-05-24 17:13:21,670 - DRONE-SEND: Message ID GLOBAL_POSITION_INT type position sent at 1748099601.670830
2025-05-24 17:13:21,682 - GS-RECV: Message ID ATTITUDE type attitude received at 1748099601.682100
2025-05-24 17:13:21,687 - GS-RECV: Message ID GLOBAL_POSITION_INT type position received at 1748099601.687234
2025-05-24 17:13:22,173 - DRONE-SEND: Message ID ATTITUDE type attitude sent at 1748099602.173039
2025-05-24 17:13:22,173 - DRONE-SEND: Message ID GLOBAL_POSITION_INT type position sent at 1748099602.173223
2025-05-24 17:13:22,183 - GS-RECV: Message ID ATTITUDE type attitude received at 1748099602.183685
2025-05-24 17:13:22,204 - GS-RECV: Message ID GLOBAL_POSITION_INT type position received at 1748099602.204121
2025-05-24 17:13:22,674 - DRONE-SEND: Message ID ATTITUDE type attitude sent at 1748099602.674401
2025-05-24 17:13:22,674 - DRONE-SEND: Message ID GLOBAL_POSITION_INT type position sent at 1748099602.674628
2025-05-24 17:13:22,690 - GS-RECV: Message ID ATTITUDE type attitude received at 1748099602.690755
2025-05-24 17:13:22,711 - GS-RECV: Message ID GLOBAL_POSITION_INT type position received at 1748099602.710997
2025-05-24 17:13:23,421 - DRONE-SEND: Message ID ATTITUDE type attitude sent at 1748099603.421641
2025-05-24 17:13:23,421 - DRONE-SEND: Message ID GLOBAL_POSITION_INT type position sent at 1748099603.421803
2025-05-24 17:13:23,432 - GS-RECV: Message ID ATTITUDE type attitude received at 1748099603.432766
2025-05-24 17:13:23,437 - GS-RECV: Message ID GLOBAL_POSITION_INT type position received at 1748099603.437964
2025-05-24 17:13:23,924 - DRONE-SEND: Message ID ATTITUDE type attitude sent at 1748099603.924017
2025-05-24 17:13:23,924 - DRONE-SEND: Message ID GLOBAL_POSITION_INT type position sent at 1748099603.924226
2025-05-24 17:13:23,935 - GS-RECV: Message ID ATTITUDE type attitude received at 1748099603.935249
2025-05-24 17:13:23,950 - GS-RECV: Message ID GLOBAL_POSITION_INT type position received at 1748099603.950464
2025-05-24 17:13:24,670 - DRONE-SEND: Message ID ATTITUDE type attitude sent at 1748099604.670380
2025-05-24 17:13:24,670 - DRONE-SEND: Message ID GLOBAL_POSITION_INT type position sent at 1748099604.670554
2025-05-24 17:13:24,676 - GS-RECV: Message ID ATTITUDE type attitude received at 1748099604.676469
2025-05-24 17:13:24,691 - GS-RECV: Message ID GLOBAL_POSITION_INT type position received at 1748099604.691801
2025-05-24 17:13:25,173 - DRONE-SEND: Message ID ATTITUDE type attitude sent at 1748099605.173480
2025-05-24 17:13:25,173 - DRONE-SEND: Message ID GLOBAL_POSITION_INT type position sent at 1748099605.173675
2025-05-24 17:13:25,184 - GS-RECV: Message ID ATTITUDE type attitude received at 1748099605.184308
2025-05-24 17:13:25,199 - GS-RECV: Message ID GLOBAL_POSITION_INT type position received at 1748099605.199527
2025-05-24 17:13:25,674 - DRONE-SEND: Message ID ATTITUDE type attitude sent at 1748099605.674928
2025-05-24 17:13:25,675 - DRONE-SEND: Message ID GLOBAL_POSITION_INT type position sent at 1748099605.675134
2025-05-24 17:13:25,685 - GS-RECV: Message ID ATTITUDE type attitude received at 1748099605.685968
2025-05-24 17:13:25,696 - GS-RECV: Message ID GLOBAL_POSITION_INT type position received at 1748099605.696328
2025-05-24 17:13:26,422 - DRONE-SEND: Message ID ATTITUDE type attitude sent at 1748099606.422229
2025-05-24 17:13:26,422 - DRONE-SEND: Message ID GLOBAL_POSITION_INT type position sent at 1748099606.422444
2025-05-24 17:13:26,433 - GS-RECV: Message ID ATTITUDE type attitude received at 1748099606.433455
2025-05-24 17:13:26,453 - GS-RECV: Message ID GLOBAL_POSITION_INT type position received at 1748099606.453879
2025-05-24 17:13:26,923 - DRONE-SEND: Message ID ATTITUDE type attitude sent at 1748099606.923755
2025-05-24 17:13:26,923 - DRONE-SEND: Message ID GLOBAL_POSITION_INT type position sent at 1748099606.923976
2025-05-24 17:13:26,935 - GS-RECV: Message ID ATTITUDE type attitude received at 1748099606.935064
2025-05-24 17:13:26,935 - GS-RECV: Message ID GLOBAL_POSITION_INT type position received at 1748099606.935186
2025-05-24 17:13:27,672 - DRONE-SEND: Message ID ATTITUDE type attitude sent at 1748099607.672636
2025-05-24 17:13:27,673 - DRONE-SEND: Message ID GLOBAL_POSITION_INT type position sent at 1748099607.673038
2025-05-24 17:13:27,684 - GS-RECV: Message ID ATTITUDE type attitude received at 1748099607.684166
2025-05-24 17:13:27,709 - GS-RECV: Message ID GLOBAL_POSITION_INT type position received at 1748099607.709467
2025-05-24 17:13:28,174 - DRONE-SEND: Message ID ATTITUDE type attitude sent at 1748099608.174054
2025-05-24 17:13:28,174 - DRONE-SEND: Message ID GLOBAL_POSITION_INT type position sent at 1748099608.174254
2025-05-24 17:13:28,185 - GS-RECV: Message ID ATTITUDE type attitude received at 1748099608.185223
2025-05-24 17:13:28,205 - GS-RECV: Message ID GLOBAL_POSITION_INT type position received at 1748099608.205571
2025-05-24 17:13:28,921 - DRONE-SEND: Message ID ATTITUDE type attitude sent at 1748099608.921400
2025-05-24 17:13:28,921 - DRONE-SEND: Message ID GLOBAL_POSITION_INT type position sent at 1748099608.921627
2025-05-24 17:13:28,937 - GS-RECV: Message ID ATTITUDE type attitude received at 1748099608.937770
2025-05-24 17:13:28,948 - GS-RECV: Message ID GLOBAL_POSITION_INT type position received at 1748099608.947996
2025-05-24 17:13:29,422 - DRONE-SEND: Message ID ATTITUDE type attitude sent at 1748099609.422884
2025-05-24 17:13:29,423 - DRONE-SEND: Message ID GLOBAL_POSITION_INT type position sent at 1748099609.423069
2025-05-24 17:13:29,433 - GS-RECV: Message ID ATTITUDE type attitude received at 1748099609.433631
2025-05-24 17:13:29,443 - GS-RECV: Message ID GLOBAL_POSITION_INT type position received at 1748099609.443969
2025-05-24 17:13:30,171 - DRONE-SEND: Message ID ATTITUDE type attitude sent at 1748099610.171633
2025-05-24 17:13:30,171 - DRONE-SEND: Message ID GLOBAL_POSITION_INT type position sent at 1748099610.171852
2025-05-24 17:13:30,182 - GS-RECV: Message ID ATTITUDE type attitude received at 1748099610.182802
2025-05-24 17:13:30,198 - GS-RECV: Message ID GLOBAL_POSITION_INT type position received at 1748099610.198087
2025-05-24 17:13:30,674 - DRONE-SEND: Message ID ATTITUDE type attitude sent at 1748099610.673975
2025-05-24 17:13:30,674 - DRONE-SEND: Message ID GLOBAL_POSITION_INT type position sent at 1748099610.674143
2025-05-24 17:13:30,684 - GS-RECV: Message ID ATTITUDE type attitude received at 1748099610.684829
2025-05-24 17:13:30,695 - GS-RECV: Message ID GLOBAL_POSITION_INT type position received at 1748099610.695073
2025-05-24 17:13:31,420 - DRONE-SEND: Message ID ATTITUDE type attitude sent at 1748099611.420512
2025-05-24 17:13:31,420 - DRONE-SEND: Message ID GLOBAL_POSITION_INT type position sent at 1748099611.420723
2025-05-24 17:13:31,431 - GS-RECV: Message ID ATTITUDE type attitude received at 1748099611.431742
2025-05-24 17:13:31,431 - GS-RECV: Message ID GLOBAL_POSITION_INT type position received at 1748099611.431863
2025-05-24 17:13:31,922 - DRONE-SEND: Message ID ATTITUDE type attitude sent at 1748099611.922816
2025-05-24 17:13:31,923 - DRONE-SEND: Message ID GLOBAL_POSITION_INT type position sent at 1748099611.923031
2025-05-24 17:13:31,939 - GS-RECV: Message ID ATTITUDE type attitude received at 1748099611.939210
2025-05-24 17:13:31,959 - GS-RECV: Message ID GLOBAL_POSITION_INT type position received at 1748099611.959502
2025-05-24 17:13:32,670 - DRONE-SEND: Message ID ATTITUDE type attitude sent at 1748099612.670848
2025-05-24 17:13:32,671 - DRONE-SEND: Message ID GLOBAL_POSITION_INT type position sent at 1748099612.671066
2025-05-24 17:13:32,686 - GS-RECV: Message ID ATTITUDE type attitude received at 1748099612.686648
2025-05-24 17:13:32,696 - GS-RECV: Message ID GLOBAL_POSITION_INT type position received at 1748099612.696830
2025-05-24 17:13:33,173 - DRONE-SEND: Message ID ATTITUDE type attitude sent at 1748099613.173156
2025-05-24 17:13:33,173 - DRONE-SEND: Message ID GLOBAL_POSITION_INT type position sent at 1748099613.173394
2025-05-24 17:13:33,189 - GS-RECV: Message ID ATTITUDE type attitude received at 1748099613.189319
2025-05-24 17:13:33,209 - GS-RECV: Message ID GLOBAL_POSITION_INT type position received at 1748099613.209631
2025-05-24 17:13:37,003 - DRONE-SEND: Message ID ATTITUDE type attitude sent at 1748099617.003470
2025-05-24 17:13:37,003 - DRONE-SEND: Message ID GLOBAL_POSITION_INT type position sent at 1748099617.003612
2025-05-24 17:13:37,014 - GS-RECV: Message ID ATTITUDE type attitude received at 1748099617.014509
2025-05-24 17:13:37,029 - GS-RECV: Message ID GLOBAL_POSITION_INT type position received at 1748099617.029760
2025-05-24 17:13:37,506 - DRONE-SEND: Message ID ATTITUDE type attitude sent at 1748099617.506683
2025-05-24 17:13:37,506 - DRONE-SEND: Message ID GLOBAL_POSITION_INT type position sent at 1748099617.506847
2025-05-24 17:13:37,517 - GS-RECV: Message ID ATTITUDE type attitude received at 1748099617.517541
2025-05-24 17:13:37,532 - GS-RECV: Message ID GLOBAL_POSITION_INT type position received at 1748099617.532888
2025-05-24 17:13:38,008 - DRONE-SEND: Message ID ATTITUDE type attitude sent at 1748099618.008927
2025-05-24 17:13:38,009 - DRONE-SEND: Message ID GLOBAL_POSITION_INT type position sent at 1748099618.009105
2025-05-24 17:13:38,014 - GS-RECV: Message ID ATTITUDE type attitude received at 1748099618.014874
2025-05-24 17:13:38,020 - GS-RECV: Message ID GLOBAL_POSITION_INT type position received at 1748099618.020006
2025-05-24 17:13:38,753 - DRONE-SEND: Message ID ATTITUDE type attitude sent at 1748099618.753707
2025-05-24 17:13:38,753 - DRONE-SEND: Message ID GLOBAL_POSITION_INT type position sent at 1748099618.753899
2025-05-24 17:13:38,759 - GS-RECV: Message ID ATTITUDE type attitude received at 1748099618.759879
2025-05-24 17:13:38,765 - GS-RECV: Message ID GLOBAL_POSITION_INT type position received at 1748099618.765056
2025-05-24 17:13:39,258 - DRONE-SEND: Message ID ATTITUDE type attitude sent at 1748099619.258527
2025-05-24 17:13:39,258 - DRONE-SEND: Message ID GLOBAL_POSITION_INT type position sent at 1748099619.258718
2025-05-24 17:13:39,269 - GS-RECV: Message ID ATTITUDE type attitude received at 1748099619.269723
2025-05-24 17:13:39,295 - GS-RECV: Message ID GLOBAL_POSITION_INT type position received at 1748099619.295045
2025-05-24 17:13:40,008 - DRONE-SEND: Message ID ATTITUDE type attitude sent at 1748099620.008288
2025-05-24 17:13:40,008 - DRONE-SEND: Message ID GLOBAL_POSITION_INT type position sent at 1748099620.008522
2025-05-24 17:13:40,018 - GS-RECV: Message ID ATTITUDE type attitude received at 1748099620.018751
2025-05-24 17:13:40,034 - GS-RECV: Message ID GLOBAL_POSITION_INT type position received at 1748099620.034061
2025-05-24 17:13:40,755 - DRONE-SEND: Message ID ATTITUDE type attitude sent at 1748099620.755497
2025-05-24 17:13:40,755 - DRONE-SEND: Message ID GLOBAL_POSITION_INT type position sent at 1748099620.755680
2025-05-24 17:13:40,766 - GS-RECV: Message ID ATTITUDE type attitude received at 1748099620.766792
2025-05-24 17:13:40,782 - GS-RECV: Message ID GLOBAL_POSITION_INT type position received at 1748099620.782099
2025-05-24 17:13:40,880 - GS-SEND: Message ID {'velocity': {'vx': 0.0, 'vy': 0.0, 'vz': -2.5}} type velocity_down sent at 1748099620.880838
2025-05-24 17:13:40,881 - DRONE-RECV: Message ID {'velocity': {'vx': 0.0, 'vy': 0.0, 'vz': -2.5}} type velocity received at 1748099620.881373
2025-05-24 17:13:40,881 - DRONE-EXEC: Message ID {'velocity': {'vx': 0.0, 'vy': 0.0, 'vz': -2.5}} type velocity executed - Transit: 0.00ms, Processing: 0.17ms, Total: 0.17ms, TLS: True
2025-05-24 17:13:41,258 - DRONE-SEND: Message ID ATTITUDE type attitude sent at 1748099621.258767
2025-05-24 17:13:41,259 - DRONE-SEND: Message ID GLOBAL_POSITION_INT type position sent at 1748099621.258991
2025-05-24 17:13:41,269 - GS-RECV: Message ID ATTITUDE type attitude received at 1748099621.269555
2025-05-24 17:13:41,284 - GS-RECV: Message ID GLOBAL_POSITION_INT type position received at 1748099621.284867
2025-05-24 17:13:41,886 - GS-SEND: Message ID {'velocity': {'vx': 0.0, 'vy': 0.0, 'vz': -2.5}} type velocity_down sent at 1748099621.886341
2025-05-24 17:13:41,892 - DRONE-RECV: Message ID {'velocity': {'vx': 0.0, 'vy': 0.0, 'vz': -2.5}} type velocity received at 1748099621.892159
2025-05-24 17:13:41,892 - DRONE-EXEC: Message ID {'velocity': {'vx': 0.0, 'vy': 0.0, 'vz': -2.5}} type velocity executed - Transit: 0.00ms, Processing: 0.08ms, Total: 0.08ms, TLS: True
2025-05-24 17:13:42,006 - DRONE-SEND: Message ID ATTITUDE type attitude sent at 1748099622.006803
2025-05-24 17:13:42,007 - DRONE-SEND: Message ID GLOBAL_POSITION_INT type position sent at 1748099622.007042
2025-05-24 17:13:42,023 - GS-RECV: Message ID ATTITUDE type attitude received at 1748099622.023390
2025-05-24 17:13:42,038 - GS-RECV: Message ID GLOBAL_POSITION_INT type position received at 1748099622.038824
2025-05-24 17:13:42,755 - DRONE-SEND: Message ID ATTITUDE type attitude sent at 1748099622.755665
2025-05-24 17:13:42,755 - DRONE-SEND: Message ID GLOBAL_POSITION_INT type position sent at 1748099622.755872
2025-05-24 17:13:42,766 - GS-RECV: Message ID ATTITUDE type attitude received at 1748099622.766527
2025-05-24 17:13:42,781 - GS-RECV: Message ID GLOBAL_POSITION_INT type position received at 1748099622.781905
2025-05-24 17:13:43,258 - DRONE-SEND: Message ID ATTITUDE type attitude sent at 1748099623.258859
2025-05-24 17:13:43,259 - DRONE-SEND: Message ID GLOBAL_POSITION_INT type position sent at 1748099623.259084
2025-05-24 17:13:43,270 - GS-RECV: Message ID ATTITUDE type attitude received at 1748099623.270090
2025-05-24 17:13:43,290 - GS-RECV: Message ID GLOBAL_POSITION_INT type position received at 1748099623.290405
2025-05-24 17:13:44,006 - DRONE-SEND: Message ID ATTITUDE type attitude sent at 1748099624.006891
